{
"type": "FeatureCollection",
"name": "adana_healthfacilities_hospitalclinic",
"crs": { "type": "name", "properties": { "name": "urn:ogc:def:crs:OGC:1.3:CRS84" } },
"features": [
{ "type": "Feature", "properties": { "name": "Doruk Aile Saglıgı Merkezi", "name:en": null, "amenity": "clinic", "building": null, "healthcare": "clinic", "healthcare:speciality": null, "operator:type": null, "capacity:persons": null, "addr:full": null, "addr:city": null, "source": "SafeGraph", "name:tr": null, "osm_id": 10743758481, "osm_type": "nodes" }, "geometry": { "type": "Point", "coordinates": [ 35.7621033, 36.8792151 ] } },
{ "type": "Feature", "properties": { "name": "100 Yıl 1 Nolu Aile Saglıgı Merkezi", "name:en": null, "amenity": "clinic", "building": null, "healthcare": "clinic", "healthcare:speciality": null, "operator:type": null, "capacity:persons": null, "addr:full": null, "addr:city": null, "source": "SafeGraph", "name:tr": null, "osm_id": 10743570489, "osm_type": "nodes" }, "geometry": { "type": "Point", "coordinates": [ 35.2444316, 37.0538992 ] } },
{ "type": "Feature", "properties": { "name": "Kılıclı Aile Saglıgı Merkezi", "name:en": null, "amenity": "clinic", "building": null, "healthcare": "clinic", "healthcare:speciality": null, "operator:type": null, "capacity:persons": null, "addr:full": null, "addr:city": null, "source": "SafeGraph", "name:tr": null, "osm_id": 10743575097, "osm_type": "nodes" }, "geometry": { "type": "Point", "coordinates": [ 35.4544379, 37.0811568 ] } },
{ "type": "Feature", "properties": { "name": "Saglık Ocagı", "name:en": null, "amenity": "clinic", "building": null, "healthcare": "clinic", "healthcare:speciality": null, "operator:type": null, "capacity:persons": null, "addr:full": null, "addr:city": null, "source": "SafeGraph", "name:tr": null, "osm_id": 10743700432, "osm_type": "nodes" }, "geometry": { "type": "Point", "coordinates": [ 35.5652909, 36.9083262 ] } },
{ "type": "Feature", "properties": { "name": "Hadirli Aile Saglıgı Merkezi", "name:en": null, "amenity": "clinic", "building": null, "healthcare": "clinic", "healthcare:speciality": null, "operator:type": null, "capacity:persons": null, "addr:full": null, "addr:city": null, "source": "SafeGraph", "name:tr": null, "osm_id": 10743113215, "osm_type": "nodes" }, "geometry": { "type": "Point", "coordinates": [ 35.318238, 36.9348642 ] } },
{ "type": "Feature", "properties": { "name": "Sucuzade Aile Saglıgı Merkezi", "name:en": null, "amenity": "clinic", "building": null, "healthcare": "clinic", "healthcare:speciality": null, "operator:type": null, "capacity:persons": null, "addr:full": null, "addr:city": null, "source": "SafeGraph", "name:tr": null, "osm_id": 10743108044, "osm_type": "nodes" }, "geometry": { "type": "Point", "coordinates": [ 35.3309195, 36.9894166 ] } },
{ "type": "Feature", "properties": { "name": "Kırıklı Aile Saglıgı Merkezi", "name:en": null, "amenity": "clinic", "building": null, "healthcare": "clinic", "healthcare:speciality": null, "operator:type": null, "capacity:persons": null, "addr:full": null, "addr:city": null, "source": "SafeGraph", "name:tr": null, "osm_id": 10743153318, "osm_type": "nodes" }, "geometry": { "type": "Point", "coordinates": [ 35.0603114, 37.2544867 ] } },
{ "type": "Feature", "properties": { "name": "Ozel Dogus Cocuk Hastalıkları Dal Merkezi", "name:en": null, "amenity": "clinic", "building": null, "healthcare": "clinic", "healthcare:speciality": null, "operator:type": null, "capacity:persons": null, "addr:full": null, "addr:city": null, "source": "SafeGraph", "name:tr": null, "osm_id": 10743189615, "osm_type": "nodes" }, "geometry": { "type": "Point", "coordinates": [ 35.325142, 37.0036879 ] } },
{ "type": "Feature", "properties": { "name": "Özel Medline Hastanesi", "name:en": null, "amenity": "hospital", "building": null, "healthcare": "hospital", "healthcare:speciality": null, "operator:type": null, "capacity:persons": null, "addr:full": null, "addr:city": null, "source": "SafeGraph", "name:tr": null, "osm_id": 9387859272, "osm_type": "nodes" }, "geometry": { "type": "Point", "coordinates": [ 35.2544365, 37.0532646 ] } },
{ "type": "Feature", "properties": { "name": "Ozgul Saglık Kabini", "name:en": null, "amenity": "clinic", "building": null, "healthcare": "clinic", "healthcare:speciality": null, "operator:type": null, "capacity:persons": null, "addr:full": null, "addr:city": null, "source": "SafeGraph", "name:tr": null, "osm_id": 10743152484, "osm_type": "nodes" }, "geometry": { "type": "Point", "coordinates": [ 35.3567304, 36.9821535 ] } },
{ "type": "Feature", "properties": { "name": "Ozel Adana Hiperbarik Oksijen Tedavi Merkezi", "name:en": null, "amenity": "clinic", "building": null, "healthcare": "clinic", "healthcare:speciality": null, "operator:type": null, "capacity:persons": null, "addr:full": null, "addr:city": null, "source": "SafeGraph", "name:tr": null, "osm_id": 10743134757, "osm_type": "nodes" }, "geometry": { "type": "Point", "coordinates": [ 35.2676837, 37.0502087 ] } },
{ "type": "Feature", "properties": { "name": "Feke Toplum Saglıgı Merkezi", "name:en": null, "amenity": "clinic", "building": null, "healthcare": "clinic", "healthcare:speciality": null, "operator:type": null, "capacity:persons": null, "addr:full": null, "addr:city": null, "source": "SafeGraph", "name:tr": null, "osm_id": 10742634189, "osm_type": "nodes" }, "geometry": { "type": "Point", "coordinates": [ 35.9113326, 37.8147696 ] } },
{ "type": "Feature", "properties": { "name": "2 Nolu Aile Saglıgı Merkezi", "name:en": null, "amenity": "clinic", "building": null, "healthcare": "clinic", "healthcare:speciality": null, "operator:type": null, "capacity:persons": null, "addr:full": null, "addr:city": null, "source": "SafeGraph", "name:tr": null, "osm_id": 10742459482, "osm_type": "nodes" }, "geometry": { "type": "Point", "coordinates": [ 35.4234906, 37.031925 ] } },
{ "type": "Feature", "properties": { "name": "Sehit Erkut Akbay Aile Saglıgı Merkezi", "name:en": null, "amenity": "clinic", "building": null, "healthcare": "clinic", "healthcare:speciality": null, "operator:type": null, "capacity:persons": null, "addr:full": null, "addr:city": null, "source": "SafeGraph", "name:tr": null, "osm_id": 10739125354, "osm_type": "nodes" }, "geometry": { "type": "Point", "coordinates": [ 35.3375449, 36.9755209 ] } },
{ "type": "Feature", "properties": { "name": "Adana Devlet Hastanesi Semt Poliklinigi", "name:en": null, "amenity": "hospital", "building": null, "healthcare": "hospital", "healthcare:speciality": null, "operator:type": null, "capacity:persons": null, "addr:full": null, "addr:city": null, "source": "SafeGraph", "name:tr": null, "osm_id": 10739144711, "osm_type": "nodes" }, "geometry": { "type": "Point", "coordinates": [ 35.3381975, 36.9834692 ] } },
{ "type": "Feature", "properties": { "name": "Yesilevler Saglık Ocagı", "name:en": null, "amenity": "clinic", "building": null, "healthcare": "clinic", "healthcare:speciality": null, "operator:type": null, "capacity:persons": null, "addr:full": null, "addr:city": null, "source": "SafeGraph", "name:tr": null, "osm_id": 10738771286, "osm_type": "nodes" }, "geometry": { "type": "Point", "coordinates": [ 35.2883587, 37.000312 ] } },
{ "type": "Feature", "properties": { "name": "Etekli Saglık Ocagı", "name:en": null, "amenity": "clinic", "building": null, "healthcare": "clinic", "healthcare:speciality": null, "operator:type": null, "capacity:persons": null, "addr:full": null, "addr:city": null, "source": "SafeGraph", "name:tr": null, "osm_id": 10738774218, "osm_type": "nodes" }, "geometry": { "type": "Point", "coordinates": [ 35.2311426, 37.4247157 ] } },
{ "type": "Feature", "properties": { "name": "Yakapınar Aile Saglıgı Merkezi", "name:en": null, "amenity": "clinic", "building": null, "healthcare": "clinic", "healthcare:speciality": null, "operator:type": null, "capacity:persons": null, "addr:full": null, "addr:city": null, "source": "SafeGraph", "name:tr": null, "osm_id": 10736930644, "osm_type": "nodes" }, "geometry": { "type": "Point", "coordinates": [ 35.6095353, 36.9602035 ] } },
{ "type": "Feature", "properties": { "name": "Büyük Dikili Aile Saglık Merkezi", "name:en": null, "amenity": "clinic", "building": null, "healthcare": "clinic", "healthcare:speciality": null, "operator:type": null, "capacity:persons": null, "addr:full": null, "addr:city": null, "source": "SafeGraph", "name:tr": null, "osm_id": 10732611871, "osm_type": "nodes" }, "geometry": { "type": "Point", "coordinates": [ 35.1654664, 37.0072121 ] } },
{ "type": "Feature", "properties": { "name": "Gazikoy Aile Saglık Merkezi", "name:en": null, "amenity": "clinic", "building": null, "healthcare": "clinic", "healthcare:speciality": null, "operator:type": null, "capacity:persons": null, "addr:full": null, "addr:city": null, "source": "SafeGraph", "name:tr": null, "osm_id": 10732773105, "osm_type": "nodes" }, "geometry": { "type": "Point", "coordinates": [ 35.8537975, 37.3005156 ] } },
{ "type": "Feature", "properties": { "name": "Belediye Evleri Saglık Ocagı", "name:en": null, "amenity": "clinic", "building": null, "healthcare": "clinic", "healthcare:speciality": null, "operator:type": null, "capacity:persons": null, "addr:full": null, "addr:city": null, "source": "SafeGraph", "name:tr": null, "osm_id": 10717559877, "osm_type": "nodes" }, "geometry": { "type": "Point", "coordinates": [ 35.2595129, 37.0422879 ] } },
{ "type": "Feature", "properties": { "name": "Makbule Yusuf Televi Aile Saglıgı Merkezi", "name:en": null, "amenity": "clinic", "building": null, "healthcare": "clinic", "healthcare:speciality": null, "operator:type": null, "capacity:persons": null, "addr:full": null, "addr:city": null, "source": "SafeGraph", "name:tr": null, "osm_id": 10715798598, "osm_type": "nodes" }, "geometry": { "type": "Point", "coordinates": [ 35.3238988, 36.9796942 ] } },
{ "type": "Feature", "properties": { "name": "Kozan Verem Savas Dispanseri", "name:en": null, "amenity": "clinic", "building": null, "healthcare": "clinic", "healthcare:speciality": null, "operator:type": null, "capacity:persons": null, "addr:full": null, "addr:city": null, "source": "SafeGraph", "name:tr": null, "osm_id": 10709354856, "osm_type": "nodes" }, "geometry": { "type": "Point", "coordinates": [ 35.826214, 37.4671951 ] } },
{ "type": "Feature", "properties": { "name": "Çukurova Üniversitesi Tıp Fakültesi Balcalı Hastanesi", "name:en": null, "amenity": "hospital", "building": null, "healthcare": "hospital", "healthcare:speciality": null, "operator:type": null, "capacity:persons": null, "addr:full": null, "addr:city": null, "source": "SafeGraph", "name:tr": null, "osm_id": 10742483031, "osm_type": "nodes" }, "geometry": { "type": "Point", "coordinates": [ 35.3621447, 37.0563328 ] } },
{ "type": "Feature", "properties": { "name": "Tufanbeyli Toplum Saglıgı Merkezi", "name:en": null, "amenity": "clinic", "building": null, "healthcare": "clinic", "healthcare:speciality": null, "operator:type": null, "capacity:persons": null, "addr:full": null, "addr:city": null, "source": "SafeGraph", "name:tr": null, "osm_id": 10742616612, "osm_type": "nodes" }, "geometry": { "type": "Point", "coordinates": [ 36.218033, 38.2537939 ] } },
{ "type": "Feature", "properties": { "name": "95A - Özel Dermancan Tıp Merkezi", "name:en": null, "amenity": "hospital", "building": null, "healthcare": "hospital", "healthcare:speciality": null, "operator:type": null, "capacity:persons": null, "addr:full": null, "addr:city": "Adana", "source": null, "name:tr": null, "osm_id": 11207881817, "osm_type": "nodes" }, "geometry": { "type": "Point", "coordinates": [ 35.2994904, 37.0462969 ] } },
{ "type": "Feature", "properties": { "name": "Karsıyaka Verem Savas Dispanseri", "name:en": null, "amenity": "clinic", "building": null, "healthcare": "clinic", "healthcare:speciality": null, "operator:type": null, "capacity:persons": null, "addr:full": null, "addr:city": null, "source": "SafeGraph", "name:tr": null, "osm_id": 10711588460, "osm_type": "nodes" }, "geometry": { "type": "Point", "coordinates": [ 35.3378341, 36.9824336 ] } },
{ "type": "Feature", "properties": { "name": "Akıncılar Aile Sağlığı Merkezi", "name:en": null, "amenity": "clinic", "building": null, "healthcare": "clinic", "healthcare:speciality": null, "operator:type": null, "capacity:persons": null, "addr:full": null, "addr:city": null, "source": "SafeGraph", "name:tr": null, "osm_id": 7906214322, "osm_type": "nodes" }, "geometry": { "type": "Point", "coordinates": [ 35.3541798, 36.9951803 ] } },
{ "type": "Feature", "properties": { "name": "Özel Seyhan Tıp Merkezi", "name:en": null, "amenity": "clinic", "building": null, "healthcare": "clinic", "healthcare:speciality": null, "operator:type": null, "capacity:persons": null, "addr:full": null, "addr:city": null, "source": "SafeGraph", "name:tr": null, "osm_id": 10736946641, "osm_type": "nodes" }, "geometry": { "type": "Point", "coordinates": [ 35.3041685, 36.9875034 ] } },
{ "type": "Feature", "properties": { "name": "Bio Med Tıp Merkezi", "name:en": null, "amenity": "clinic", "building": null, "healthcare": "clinic", "healthcare:speciality": null, "operator:type": null, "capacity:persons": null, "addr:full": null, "addr:city": null, "source": "SafeGraph", "name:tr": null, "osm_id": 10743067293, "osm_type": "nodes" }, "geometry": { "type": "Point", "coordinates": [ 35.3022359, 36.9860036 ] } },
{ "type": "Feature", "properties": { "name": "Sarıhamzalı Aile Sağlığı Merkezi", "name:en": null, "amenity": "clinic", "building": null, "healthcare": "clinic", "healthcare:speciality": null, "operator:type": null, "capacity:persons": null, "addr:full": null, "addr:city": "Adana", "source": null, "name:tr": null, "osm_id": 10739222266, "osm_type": "nodes" }, "geometry": { "type": "Point", "coordinates": [ 35.2228366, 36.9790598 ] } },
{ "type": "Feature", "properties": { "name": "Yumurtalık Toplum Saglıgı Merkezi", "name:en": null, "amenity": "clinic", "building": null, "healthcare": "clinic", "healthcare:speciality": null, "operator:type": null, "capacity:persons": null, "addr:full": null, "addr:city": null, "source": "SafeGraph", "name:tr": null, "osm_id": 10711529900, "osm_type": "nodes" }, "geometry": { "type": "Point", "coordinates": [ 35.7846193, 36.7694067 ] } },
{ "type": "Feature", "properties": { "name": "Ziya Pasa Kadın Dogum ve Cocuk Hastalıkları Merkezi", "name:en": null, "amenity": "clinic", "building": null, "healthcare": "clinic", "healthcare:speciality": null, "operator:type": null, "capacity:persons": null, "addr:full": null, "addr:city": null, "source": "SafeGraph", "name:tr": null, "osm_id": 10743616408, "osm_type": "nodes" }, "geometry": { "type": "Point", "coordinates": [ 35.3191526, 36.9984056 ] } },
{ "type": "Feature", "properties": { "name": "Cifteminare Verem Savas Dispanseri", "name:en": null, "amenity": "clinic", "building": null, "healthcare": "clinic", "healthcare:speciality": null, "operator:type": null, "capacity:persons": null, "addr:full": null, "addr:city": null, "source": "SafeGraph", "name:tr": null, "osm_id": 10739063714, "osm_type": "nodes" }, "geometry": { "type": "Point", "coordinates": [ 35.3198647, 36.9949481 ] } },
{ "type": "Feature", "properties": { "name": "Saglık Ocagı", "name:en": null, "amenity": "clinic", "building": null, "healthcare": "clinic", "healthcare:speciality": null, "operator:type": null, "capacity:persons": null, "addr:full": null, "addr:city": null, "source": "SafeGraph", "name:tr": null, "osm_id": 10713219069, "osm_type": "nodes" }, "geometry": { "type": "Point", "coordinates": [ 35.3148571, 36.9873213 ] } },
{ "type": "Feature", "properties": { "name": "Özel Adana Hastanesi", "name:en": null, "amenity": "hospital", "building": null, "healthcare": "hospital", "healthcare:speciality": null, "operator:type": null, "capacity:persons": null, "addr:full": null, "addr:city": null, "source": null, "name:tr": null, "osm_id": 4567435304, "osm_type": "nodes" }, "geometry": { "type": "Point", "coordinates": [ 35.3243209, 36.9938983 ] } },
{ "type": "Feature", "properties": { "name": "Yesilkoy Aile Saglıgı Merkezi", "name:en": null, "amenity": "clinic", "building": null, "healthcare": "clinic", "healthcare:speciality": null, "operator:type": null, "capacity:persons": null, "addr:full": null, "addr:city": null, "source": "SafeGraph", "name:tr": null, "osm_id": 10743748018, "osm_type": "nodes" }, "geometry": { "type": "Point", "coordinates": [ 35.4913719, 36.6746341 ] } },
{ "type": "Feature", "properties": { "name": "Akkapı Aile Saglıgı Merkezi", "name:en": null, "amenity": "clinic", "building": null, "healthcare": "clinic", "healthcare:speciality": null, "operator:type": null, "capacity:persons": null, "addr:full": null, "addr:city": null, "source": "SafeGraph", "name:tr": null, "osm_id": 10717860135, "osm_type": "nodes" }, "geometry": { "type": "Point", "coordinates": [ 35.3049195, 36.9617552 ] } },
{ "type": "Feature", "properties": { "name": "Mıdık Aile Saglıgı Merkezi", "name:en": null, "amenity": "clinic", "building": null, "healthcare": "clinic", "healthcare:speciality": null, "operator:type": null, "capacity:persons": null, "addr:full": null, "addr:city": null, "source": "SafeGraph", "name:tr": null, "osm_id": 10693100618, "osm_type": "nodes" }, "geometry": { "type": "Point", "coordinates": [ 35.308342, 36.9458233 ] } },
{ "type": "Feature", "properties": { "name": "Aktif Goz Merkezi", "name:en": null, "amenity": "clinic", "building": null, "healthcare": "clinic", "healthcare:speciality": null, "operator:type": null, "capacity:persons": null, "addr:full": null, "addr:city": null, "source": "SafeGraph", "name:tr": null, "osm_id": 10743159392, "osm_type": "nodes" }, "geometry": { "type": "Point", "coordinates": [ 35.3236614, 37.0007769 ] } },
{ "type": "Feature", "properties": { "name": "Prof Dr Nusret Karasu Goğus Hastalıkları Hastanesi", "name:en": null, "amenity": "hospital", "building": null, "healthcare": "hospital", "healthcare:speciality": null, "operator:type": null, "capacity:persons": null, "addr:full": null, "addr:city": null, "source": "SafeGraph", "name:tr": null, "osm_id": 10736878732, "osm_type": "nodes" }, "geometry": { "type": "Point", "coordinates": [ 35.3187597, 37.0215715 ] } },
{ "type": "Feature", "properties": { "name": "Baskent Universitesi Seyhan Hastanesi", "name:en": null, "amenity": "hospital", "building": null, "healthcare": "hospital", "healthcare:speciality": null, "operator:type": null, "capacity:persons": null, "addr:full": null, "addr:city": null, "source": "SafeGraph", "name:tr": null, "osm_id": 10728276713, "osm_type": "nodes" }, "geometry": { "type": "Point", "coordinates": [ 35.3236869, 37.0079517 ] } },
{ "type": "Feature", "properties": { "name": "Özel Nobel Toros Hastanesi", "name:en": null, "amenity": "hospital", "building": null, "healthcare": "hospital", "healthcare:speciality": null, "operator:type": null, "capacity:persons": null, "addr:full": null, "addr:city": null, "source": "SafeGraph", "name:tr": null, "osm_id": 10712400127, "osm_type": "nodes" }, "geometry": { "type": "Point", "coordinates": [ 35.3204696, 37.0161887 ] } },
{ "type": "Feature", "properties": { "name": "Cukurova Devlet Hastanesi", "name:en": null, "amenity": "hospital", "building": null, "healthcare": "hospital", "healthcare:speciality": null, "operator:type": null, "capacity:persons": null, "addr:full": null, "addr:city": null, "source": "SafeGraph", "name:tr": null, "osm_id": 10709335188, "osm_type": "nodes" }, "geometry": { "type": "Point", "coordinates": [ 35.3187385, 37.0197496 ] } },
{ "type": "Feature", "properties": { "name": "Toros Aile Saglıgı Merkezi", "name:en": null, "amenity": "clinic", "building": null, "healthcare": "clinic", "healthcare:speciality": null, "operator:type": null, "capacity:persons": null, "addr:full": null, "addr:city": null, "source": "SafeGraph", "name:tr": null, "osm_id": 10743747167, "osm_type": "nodes" }, "geometry": { "type": "Point", "coordinates": [ 35.3067161, 37.0064413 ] } },
{ "type": "Feature", "properties": { "name": "Numune Hastanesi Fatma Kemal Timucin Kalp Merkezi", "name:en": null, "amenity": "hospital", "building": null, "healthcare": "hospital", "healthcare:speciality": null, "operator:type": null, "capacity:persons": null, "addr:full": null, "addr:city": null, "source": "SafeGraph", "name:tr": null, "osm_id": 10743145297, "osm_type": "nodes" }, "geometry": { "type": "Point", "coordinates": [ 35.3192791, 36.9997427 ] } },
{ "type": "Feature", "properties": { "name": "Ozel BSK Metropark Hastanesi", "name:en": null, "amenity": "hospital", "building": null, "healthcare": "hospital", "healthcare:speciality": null, "operator:type": null, "capacity:persons": null, "addr:full": null, "addr:city": null, "source": "SafeGraph", "name:tr": null, "osm_id": 10743172308, "osm_type": "nodes" }, "geometry": { "type": "Point", "coordinates": [ 35.2640332, 37.0501723 ] } },
{ "type": "Feature", "properties": { "name": "Dr Ekrem Tok Ruh Saglıgı Hastalıkları Hastanesi", "name:en": null, "amenity": "hospital", "building": null, "healthcare": "hospital", "healthcare:speciality": null, "operator:type": null, "capacity:persons": null, "addr:full": null, "addr:city": null, "source": "SafeGraph", "name:tr": null, "osm_id": 10739124991, "osm_type": "nodes" }, "geometry": { "type": "Point", "coordinates": [ 35.2637289, 37.050289 ] } },
{ "type": "Feature", "properties": { "name": "Burhanlı Saglık Ocagı", "name:en": null, "amenity": "clinic", "building": null, "healthcare": "clinic", "healthcare:speciality": null, "operator:type": null, "capacity:persons": null, "addr:full": null, "addr:city": null, "source": "SafeGraph", "name:tr": null, "osm_id": 10742415932, "osm_type": "nodes" }, "geometry": { "type": "Point", "coordinates": [ 36.0674007, 37.1560096 ] } },
{ "type": "Feature", "properties": { "name": "Sagkaya Aile Saglıgı Merkezi", "name:en": null, "amenity": "clinic", "building": null, "healthcare": "clinic", "healthcare:speciality": null, "operator:type": null, "capacity:persons": null, "addr:full": null, "addr:city": null, "source": "SafeGraph", "name:tr": null, "osm_id": 10743761433, "osm_type": "nodes" }, "geometry": { "type": "Point", "coordinates": [ 35.6889032, 37.1783043 ] } },
{ "type": "Feature", "properties": { "name": "Tepecikoren Aile Saglıgı Merkezi", "name:en": null, "amenity": "clinic", "building": null, "healthcare": "clinic", "healthcare:speciality": null, "operator:type": null, "capacity:persons": null, "addr:full": null, "addr:city": null, "source": "SafeGraph", "name:tr": null, "osm_id": 10742587492, "osm_type": "nodes" }, "geometry": { "type": "Point", "coordinates": [ 35.909668, 37.4658674 ] } },
{ "type": "Feature", "properties": { "name": "Ozel Sis Tıp Merkezi", "name:en": null, "amenity": "clinic", "building": null, "healthcare": "clinic", "healthcare:speciality": null, "operator:type": null, "capacity:persons": null, "addr:full": null, "addr:city": null, "source": "SafeGraph", "name:tr": null, "osm_id": 10743665062, "osm_type": "nodes" }, "geometry": { "type": "Point", "coordinates": [ 35.814793, 37.4493268 ] } },
{ "type": "Feature", "properties": { "name": "2 Nolu Aile Saglıgı Merkezi", "name:en": null, "amenity": "clinic", "building": null, "healthcare": "clinic", "healthcare:speciality": null, "operator:type": null, "capacity:persons": null, "addr:full": null, "addr:city": null, "source": "SafeGraph", "name:tr": null, "osm_id": 10743120939, "osm_type": "nodes" }, "geometry": { "type": "Point", "coordinates": [ 35.814731, 37.4495803 ] } },
{ "type": "Feature", "properties": { "name": "Hacıbeyli Saglık Evi", "name:en": null, "amenity": "clinic", "building": null, "healthcare": "clinic", "healthcare:speciality": null, "operator:type": null, "capacity:persons": null, "addr:full": null, "addr:city": null, "source": "SafeGraph", "name:tr": null, "osm_id": 10709354857, "osm_type": "nodes" }, "geometry": { "type": "Point", "coordinates": [ 35.8794205, 37.3119175 ] } },
{ "type": "Feature", "properties": { "name": "Aile Saglıgı Merkezi", "name:en": null, "amenity": "clinic", "building": null, "healthcare": "clinic", "healthcare:speciality": null, "operator:type": null, "capacity:persons": null, "addr:full": null, "addr:city": null, "source": "SafeGraph", "name:tr": null, "osm_id": 10743100886, "osm_type": "nodes" }, "geometry": { "type": "Point", "coordinates": [ 35.8114533, 37.0230492 ] } },
{ "type": "Feature", "properties": { "name": "Ceyhan Verem Savas Dispanseri", "name:en": null, "amenity": "clinic", "building": null, "healthcare": "clinic", "healthcare:speciality": null, "operator:type": null, "capacity:persons": null, "addr:full": null, "addr:city": null, "source": "SafeGraph", "name:tr": null, "osm_id": 10709323633, "osm_type": "nodes" }, "geometry": { "type": "Point", "coordinates": [ 35.8191808, 37.0256799 ] } },
{ "type": "Feature", "properties": { "name": "Muradiye Aile Sağlığı Merkezi", "name:en": null, "amenity": "clinic", "building": null, "healthcare": null, "healthcare:speciality": null, "operator:type": null, "capacity:persons": null, "addr:full": null, "addr:city": null, "source": null, "name:tr": null, "osm_id": 7916868143, "osm_type": "nodes" }, "geometry": { "type": "Point", "coordinates": [ 35.8022679, 37.0184363 ] } },
{ "type": "Feature", "properties": { "name": "Kucukdikili Aile Saglıgı Merkezi", "name:en": null, "amenity": "clinic", "building": null, "healthcare": "clinic", "healthcare:speciality": null, "operator:type": null, "capacity:persons": null, "addr:full": null, "addr:city": null, "source": "SafeGraph", "name:tr": null, "osm_id": 10743747509, "osm_type": "nodes" }, "geometry": { "type": "Point", "coordinates": [ 35.2159369, 37.0012705 ] } },
{ "type": "Feature", "properties": { "name": "Karaisali Toplum Saglıgı Merkezi", "name:en": null, "amenity": "clinic", "building": null, "healthcare": "clinic", "healthcare:speciality": null, "operator:type": null, "capacity:persons": null, "addr:full": null, "addr:city": null, "source": "SafeGraph", "name:tr": null, "osm_id": 10743782893, "osm_type": "nodes" }, "geometry": { "type": "Point", "coordinates": [ 35.0631867, 37.2533253 ] } },
{ "type": "Feature", "properties": { "name": "Özel Galeria Göz Kulak Burun Boğaz Teshis ve Tedavi Merkezi", "name:en": null, "amenity": "clinic", "building": null, "healthcare": "clinic", "healthcare:speciality": null, "operator:type": null, "capacity:persons": null, "addr:full": null, "addr:city": null, "source": "SafeGraph", "name:tr": null, "osm_id": 10736961605, "osm_type": "nodes" }, "geometry": { "type": "Point", "coordinates": [ 35.3330237, 37.0022356 ] } },
{ "type": "Feature", "properties": { "name": "Dogum Kadın Hastalıkları ve Dogum Merkezi", "name:en": null, "amenity": "clinic", "building": null, "healthcare": "clinic", "healthcare:speciality": null, "operator:type": null, "capacity:persons": null, "addr:full": null, "addr:city": null, "source": "SafeGraph", "name:tr": null, "osm_id": 10738728844, "osm_type": "nodes" }, "geometry": { "type": "Point", "coordinates": [ 35.3258501, 37.0019364 ] } },
{ "type": "Feature", "properties": { "name": "Onur Tıp Merkezi", "name:en": null, "amenity": "clinic", "building": null, "healthcare": "clinic", "healthcare:speciality": null, "operator:type": null, "capacity:persons": null, "addr:full": null, "addr:city": null, "source": "SafeGraph", "name:tr": null, "osm_id": 10717896706, "osm_type": "nodes" }, "geometry": { "type": "Point", "coordinates": [ 35.3245077, 37.0096103 ] } },
{ "type": "Feature", "properties": { "name": "Ozel Batıkent Hastanesi", "name:en": null, "amenity": "hospital", "building": null, "healthcare": "hospital", "healthcare:speciality": null, "operator:type": null, "capacity:persons": null, "addr:full": null, "addr:city": null, "source": "SafeGraph", "name:tr": null, "osm_id": 10709746641, "osm_type": "nodes" }, "geometry": { "type": "Point", "coordinates": [ 35.4017223, 37.0273983 ] } },
{ "type": "Feature", "properties": { "name": "Ozel Isa Alatas Tıp Merkezi", "name:en": null, "amenity": "clinic", "building": null, "healthcare": "clinic", "healthcare:speciality": null, "operator:type": null, "capacity:persons": null, "addr:full": null, "addr:city": null, "source": "SafeGraph", "name:tr": null, "osm_id": 10709808991, "osm_type": "nodes" }, "geometry": { "type": "Point", "coordinates": [ 35.3766391, 37.0109661 ] } },
{ "type": "Feature", "properties": { "name": "Turkan Gizer Aile Saglıgı Merkezi", "name:en": null, "amenity": "clinic", "building": null, "healthcare": "clinic", "healthcare:speciality": null, "operator:type": null, "capacity:persons": null, "addr:full": null, "addr:city": null, "source": "SafeGraph", "name:tr": null, "osm_id": 10736945340, "osm_type": "nodes" }, "geometry": { "type": "Point", "coordinates": [ 35.3703562, 37.0174569 ] } },
{ "type": "Feature", "properties": { "name": "Yavuzlar Aile Saglıgı Merkezi", "name:en": null, "amenity": "clinic", "building": null, "healthcare": "clinic", "healthcare:speciality": null, "operator:type": null, "capacity:persons": null, "addr:full": null, "addr:city": null, "source": "SafeGraph", "name:tr": null, "osm_id": 10743777916, "osm_type": "nodes" }, "geometry": { "type": "Point", "coordinates": [ 35.3430724, 37.0032278 ] } },
{ "type": "Feature", "properties": { "name": "Yavuzlar Aile Sağlığı Merkezi", "name:en": null, "amenity": "clinic", "building": null, "healthcare": "clinic", "healthcare:speciality": null, "operator:type": null, "capacity:persons": null, "addr:full": null, "addr:city": null, "source": null, "name:tr": null, "osm_id": 5001009128, "osm_type": "nodes" }, "geometry": { "type": "Point", "coordinates": [ 35.3422821, 37.0001116 ] } },
{ "type": "Feature", "properties": { "name": "Baskent Universitesi Guzelyalı Poliklinikleri", "name:en": null, "amenity": "clinic", "building": null, "healthcare": "clinic", "healthcare:speciality": null, "operator:type": null, "capacity:persons": null, "addr:full": null, "addr:city": null, "source": "SafeGraph", "name:tr": null, "osm_id": 10739106470, "osm_type": "nodes" }, "geometry": { "type": "Point", "coordinates": [ 35.3128105, 37.0419109 ] } },
{ "type": "Feature", "properties": { "name": "Saglık Ocagı", "name:en": null, "amenity": "clinic", "building": null, "healthcare": "clinic", "healthcare:speciality": null, "operator:type": null, "capacity:persons": null, "addr:full": null, "addr:city": null, "source": "SafeGraph", "name:tr": null, "osm_id": 10725666564, "osm_type": "nodes" }, "geometry": { "type": "Point", "coordinates": [ 35.3134419, 37.0284188 ] } },
{ "type": "Feature", "properties": { "name": "80 Yıl Aile Saglıgı Merkezi", "name:en": null, "amenity": "clinic", "building": null, "healthcare": "clinic", "healthcare:speciality": null, "operator:type": null, "capacity:persons": null, "addr:full": null, "addr:city": null, "source": "SafeGraph", "name:tr": null, "osm_id": 10743172095, "osm_type": "nodes" }, "geometry": { "type": "Point", "coordinates": [ 35.3076325, 37.0452914 ] } },
{ "type": "Feature", "properties": { "name": "Ozel Cukurova Fizyomed Fizik Tedavi Dal Merkezi", "name:en": null, "amenity": "clinic", "building": null, "healthcare": "clinic", "healthcare:speciality": null, "operator:type": null, "capacity:persons": null, "addr:full": null, "addr:city": null, "source": "SafeGraph", "name:tr": null, "osm_id": 10717531816, "osm_type": "nodes" }, "geometry": { "type": "Point", "coordinates": [ 35.3077734, 37.0452593 ] } },
{ "type": "Feature", "properties": { "name": "Fevziye Ozcelik Aile Saglıgı Merkezi", "name:en": null, "amenity": "clinic", "building": null, "healthcare": "clinic", "healthcare:speciality": null, "operator:type": null, "capacity:persons": null, "addr:full": null, "addr:city": null, "source": "SafeGraph", "name:tr": null, "osm_id": 10743147136, "osm_type": "nodes" }, "geometry": { "type": "Point", "coordinates": [ 35.8144949, 37.0130201 ] } },
{ "type": "Feature", "properties": { "name": "Aile Saglıgı Merkezi", "name:en": null, "amenity": "clinic", "building": null, "healthcare": "clinic", "healthcare:speciality": null, "operator:type": null, "capacity:persons": null, "addr:full": null, "addr:city": null, "source": "SafeGraph", "name:tr": null, "osm_id": 10717513455, "osm_type": "nodes" }, "geometry": { "type": "Point", "coordinates": [ 35.8248925, 37.0193058 ] } },
{ "type": "Feature", "properties": { "name": "Dogankent Aile Saglıgı Merkezi", "name:en": null, "amenity": "clinic", "building": null, "healthcare": "clinic", "healthcare:speciality": null, "operator:type": null, "capacity:persons": null, "addr:full": null, "addr:city": null, "source": "SafeGraph", "name:tr": null, "osm_id": 10742999458, "osm_type": "nodes" }, "geometry": { "type": "Point", "coordinates": [ 35.3399451, 36.8426276 ] } },
{ "type": "Feature", "properties": { "name": "Yenibey Aile Sağlığı Merkezi", "name:en": null, "amenity": "clinic", "building": null, "healthcare": null, "healthcare:speciality": null, "operator:type": null, "capacity:persons": null, "addr:full": null, "addr:city": null, "source": null, "name:tr": null, "osm_id": 7903230503, "osm_type": "nodes" }, "geometry": { "type": "Point", "coordinates": [ 35.3285855, 36.9752698 ] } },
{ "type": "Feature", "properties": { "name": "Güzelyurt Aile Sağlığı Merkezi", "name:en": null, "amenity": "clinic", "building": null, "healthcare": "clinic", "healthcare:speciality": null, "operator:type": null, "capacity:persons": null, "addr:full": null, "addr:city": null, "source": null, "name:tr": null, "osm_id": 5176820335, "osm_type": "nodes" }, "geometry": { "type": "Point", "coordinates": [ 35.299447, 37.0280622 ] } },
{ "type": "Feature", "properties": { "name": "sağlık ocağı", "name:en": null, "amenity": "clinic", "building": null, "healthcare": "clinic", "healthcare:speciality": null, "operator:type": "government", "capacity:persons": null, "addr:full": null, "addr:city": null, "source": null, "name:tr": null, "osm_id": 10597712200, "osm_type": "nodes" }, "geometry": { "type": "Point", "coordinates": [ 35.2988138, 37.045207 ] } },
{ "type": "Feature", "properties": { "name": "Özel Ankada Tüp Bebek Merkezi", "name:en": null, "amenity": "clinic", "building": null, "healthcare": "clinic", "healthcare:speciality": null, "operator:type": null, "capacity:persons": null, "addr:full": null, "addr:city": null, "source": "SafeGraph", "name:tr": null, "osm_id": 10736493240, "osm_type": "nodes" }, "geometry": { "type": "Point", "coordinates": [ 35.2890342, 37.0542417 ] } },
{ "type": "Feature", "properties": { "name": "Sevgi Goz Merkezi", "name:en": null, "amenity": "clinic", "building": null, "healthcare": "clinic", "healthcare:speciality": null, "operator:type": null, "capacity:persons": null, "addr:full": null, "addr:city": null, "source": "SafeGraph", "name:tr": null, "osm_id": 10711606884, "osm_type": "nodes" }, "geometry": { "type": "Point", "coordinates": [ 35.3274661, 36.9994467 ] } },
{ "type": "Feature", "properties": { "name": "Kurttepe Aile Saglıgı Merkezi", "name:en": null, "amenity": "clinic", "building": null, "healthcare": "clinic", "healthcare:speciality": null, "operator:type": null, "capacity:persons": null, "addr:full": null, "addr:city": null, "source": "SafeGraph", "name:tr": null, "osm_id": 10738690553, "osm_type": "nodes" }, "geometry": { "type": "Point", "coordinates": [ 35.2725902, 37.0533194 ] } },
{ "type": "Feature", "properties": { "name": "Batıkent Hastanesi", "name:en": null, "amenity": "hospital", "building": null, "healthcare": "hospital", "healthcare:speciality": null, "operator:type": null, "capacity:persons": null, "addr:full": null, "addr:city": null, "source": null, "name:tr": null, "osm_id": 6309131286, "osm_type": "nodes" }, "geometry": { "type": "Point", "coordinates": [ 35.4016623, 37.027373 ] } },
{ "type": "Feature", "properties": { "name": "Fethi Zengin 1 Aile Saglıgı Merkezi", "name:en": null, "amenity": "clinic", "building": null, "healthcare": "clinic", "healthcare:speciality": null, "operator:type": null, "capacity:persons": null, "addr:full": null, "addr:city": null, "source": "SafeGraph", "name:tr": null, "osm_id": 10693106719, "osm_type": "nodes" }, "geometry": { "type": "Point", "coordinates": [ 35.3140712, 37.0401789 ] } },
{ "type": "Feature", "properties": { "name": "Toros 2 Aile Saglıgı Merkezi", "name:en": null, "amenity": "clinic", "building": null, "healthcare": "clinic", "healthcare:speciality": null, "operator:type": null, "capacity:persons": null, "addr:full": null, "addr:city": null, "source": "SafeGraph", "name:tr": null, "osm_id": 10743789926, "osm_type": "nodes" }, "geometry": { "type": "Point", "coordinates": [ 35.3061278, 37.0293662 ] } },
{ "type": "Feature", "properties": { "name": "Cukurova Cerrahi Tıp Merkezi", "name:en": null, "amenity": "clinic", "building": null, "healthcare": "clinic", "healthcare:speciality": null, "operator:type": null, "capacity:persons": null, "addr:full": null, "addr:city": null, "source": "SafeGraph", "name:tr": null, "osm_id": 10708201929, "osm_type": "nodes" }, "geometry": { "type": "Point", "coordinates": [ 35.3142764, 37.0277345 ] } },
{ "type": "Feature", "properties": { "name": "Saglık Ocagı", "name:en": null, "amenity": "clinic", "building": null, "healthcare": "clinic", "healthcare:speciality": null, "operator:type": null, "capacity:persons": null, "addr:full": null, "addr:city": null, "source": "SafeGraph", "name:tr": null, "osm_id": 10713215994, "osm_type": "nodes" }, "geometry": { "type": "Point", "coordinates": [ 35.310823, 37.0440754 ] } },
{ "type": "Feature", "properties": { "name": "Hürriyet Aile Sağlığı Merkezi", "name:en": null, "amenity": "clinic", "building": null, "healthcare": "clinic", "healthcare:speciality": null, "operator:type": null, "capacity:persons": null, "addr:full": null, "addr:city": null, "source": null, "name:tr": null, "osm_id": 7916891401, "osm_type": "nodes" }, "geometry": { "type": "Point", "coordinates": [ 35.8216171, 37.0353355 ] } },
{ "type": "Feature", "properties": { "name": "Ceyhan Çocuk Hastanesi", "name:en": null, "amenity": "hospital", "building": null, "healthcare": "hospital", "healthcare:speciality": null, "operator:type": null, "capacity:persons": null, "addr:full": null, "addr:city": null, "source": null, "name:tr": null, "osm_id": 7916868144, "osm_type": "nodes" }, "geometry": { "type": "Point", "coordinates": [ 35.8154688, 37.0388733 ] } },
{ "type": "Feature", "properties": { "name": "Ali Ekinci Aile Saglıgı Merkezi", "name:en": null, "amenity": "clinic", "building": null, "healthcare": "clinic", "healthcare:speciality": null, "operator:type": null, "capacity:persons": null, "addr:full": null, "addr:city": null, "source": "SafeGraph", "name:tr": null, "osm_id": 10743076084, "osm_type": "nodes" }, "geometry": { "type": "Point", "coordinates": [ 35.8172603, 37.0258523 ] } },
{ "type": "Feature", "properties": { "name": "Toros Aile Saglığı Merkezi", "name:en": null, "amenity": "clinic", "building": null, "healthcare": "clinic", "healthcare:speciality": null, "operator:type": null, "capacity:persons": null, "addr:full": null, "addr:city": null, "source": "SafeGraph", "name:tr": null, "osm_id": 4997949825, "osm_type": "nodes" }, "geometry": { "type": "Point", "coordinates": [ 35.2950258, 37.0388277 ] } },
{ "type": "Feature", "properties": { "name": "Özel Adana Cerrahi Tıp Merkezi", "name:en": null, "amenity": "clinic", "building": null, "healthcare": "clinic", "healthcare:speciality": null, "operator:type": null, "capacity:persons": null, "addr:full": null, "addr:city": null, "source": "SafeGraph", "name:tr": null, "osm_id": 10736872612, "osm_type": "nodes" }, "geometry": { "type": "Point", "coordinates": [ 35.2868468, 37.0488431 ] } },
{ "type": "Feature", "properties": { "name": "Dogapark Aile Saglıgı Merkezi", "name:en": null, "amenity": "clinic", "building": null, "healthcare": "clinic", "healthcare:speciality": null, "operator:type": null, "capacity:persons": null, "addr:full": null, "addr:city": null, "source": "SafeGraph", "name:tr": null, "osm_id": 10743140008, "osm_type": "nodes" }, "geometry": { "type": "Point", "coordinates": [ 35.2915034, 37.0466399 ] } },
{ "type": "Feature", "properties": { "name": "Saglık Ocagı", "name:en": null, "amenity": "clinic", "building": null, "healthcare": "clinic", "healthcare:speciality": null, "operator:type": null, "capacity:persons": null, "addr:full": null, "addr:city": null, "source": "SafeGraph", "name:tr": null, "osm_id": 10725702924, "osm_type": "nodes" }, "geometry": { "type": "Point", "coordinates": [ 35.3044896, 37.0375396 ] } },
{ "type": "Feature", "properties": { "name": "Kazim Karabekir Aile Saglık Merkezi", "name:en": null, "amenity": "clinic", "building": null, "healthcare": "clinic", "healthcare:speciality": null, "operator:type": null, "capacity:persons": null, "addr:full": null, "addr:city": null, "source": "SafeGraph", "name:tr": null, "osm_id": 10711599875, "osm_type": "nodes" }, "geometry": { "type": "Point", "coordinates": [ 35.3460082, 37.0095247 ] } },
{ "type": "Feature", "properties": { "name": "Kışla Köprülü Aile Sağlığı Merkezi", "name:en": null, "amenity": "clinic", "building": null, "healthcare": "clinic", "healthcare:speciality": null, "operator:type": null, "capacity:persons": null, "addr:full": null, "addr:city": null, "source": null, "name:tr": null, "osm_id": 5176820924, "osm_type": "nodes" }, "geometry": { "type": "Point", "coordinates": [ 35.3416648, 37.0202266 ] } },
{ "type": "Feature", "properties": { "name": "2000 Evler Aile Saglıgı Merkezi", "name:en": null, "amenity": "clinic", "building": null, "healthcare": "clinic", "healthcare:speciality": null, "operator:type": null, "capacity:persons": null, "addr:full": null, "addr:city": null, "source": "SafeGraph", "name:tr": null, "osm_id": 10739084107, "osm_type": "nodes" }, "geometry": { "type": "Point", "coordinates": [ 35.2663528, 37.0291767 ] } },
{ "type": "Feature", "properties": { "name": "Akdeniz Uroloji Merkezi", "name:en": null, "amenity": "clinic", "building": null, "healthcare": "clinic", "healthcare:speciality": null, "operator:type": null, "capacity:persons": null, "addr:full": null, "addr:city": null, "source": "SafeGraph", "name:tr": null, "osm_id": 10743119164, "osm_type": "nodes" }, "geometry": { "type": "Point", "coordinates": [ 35.2789624, 37.0512855 ] } },
{ "type": "Feature", "properties": { "name": "Saglık Ocagı", "name:en": null, "amenity": "clinic", "building": null, "healthcare": "clinic", "healthcare:speciality": null, "operator:type": null, "capacity:persons": null, "addr:full": null, "addr:city": null, "source": "SafeGraph", "name:tr": null, "osm_id": 10713210718, "osm_type": "nodes" }, "geometry": { "type": "Point", "coordinates": [ 35.2811122, 36.9987804 ] } },
{ "type": "Feature", "properties": { "name": "Baskent Universitesi Hastanesi", "name:en": null, "amenity": "hospital", "building": null, "healthcare": "hospital", "healthcare:speciality": null, "operator:type": null, "capacity:persons": null, "addr:full": null, "addr:city": null, "source": "SafeGraph", "name:tr": null, "osm_id": 10709779820, "osm_type": "nodes" }, "geometry": { "type": "Point", "coordinates": [ 35.3627774, 37.0045597 ] } },
{ "type": "Feature", "properties": { "name": "Kiremithane Aile Saglıgı Merkezi", "name:en": null, "amenity": "clinic", "building": null, "healthcare": "clinic", "healthcare:speciality": null, "operator:type": null, "capacity:persons": null, "addr:full": null, "addr:city": null, "source": "SafeGraph", "name:tr": null, "osm_id": 10709380551, "osm_type": "nodes" }, "geometry": { "type": "Point", "coordinates": [ 35.3724893, 37.0024827 ] } },
{ "type": "Feature", "properties": { "name": "Sofulu Aile Saglıgı Merkezi", "name:en": null, "amenity": "clinic", "building": null, "healthcare": "clinic", "healthcare:speciality": null, "operator:type": null, "capacity:persons": null, "addr:full": null, "addr:city": null, "source": "SafeGraph", "name:tr": null, "osm_id": 10715778827, "osm_type": "nodes" }, "geometry": { "type": "Point", "coordinates": [ 35.4143328, 37.0444126 ] } },
{ "type": "Feature", "properties": { "name": "Saglık Ocagı", "name:en": null, "amenity": "clinic", "building": null, "healthcare": "clinic", "healthcare:speciality": null, "operator:type": null, "capacity:persons": null, "addr:full": null, "addr:city": null, "source": "SafeGraph", "name:tr": null, "osm_id": 10710866527, "osm_type": "nodes" }, "geometry": { "type": "Point", "coordinates": [ 35.5560359, 37.104873 ] } },
{ "type": "Feature", "properties": { "name": "Buruk Aile Saglıgı Merkezi", "name:en": null, "amenity": "clinic", "building": null, "healthcare": "clinic", "healthcare:speciality": null, "operator:type": null, "capacity:persons": null, "addr:full": null, "addr:city": null, "source": "SafeGraph", "name:tr": null, "osm_id": 10743538392, "osm_type": "nodes" }, "geometry": { "type": "Point", "coordinates": [ 35.4600625, 37.0501145 ] } },
{ "type": "Feature", "properties": { "name": "Merkez Saglık Ocagı", "name:en": null, "amenity": "clinic", "building": null, "healthcare": "clinic", "healthcare:speciality": null, "operator:type": null, "capacity:persons": null, "addr:full": null, "addr:city": null, "source": "SafeGraph", "name:tr": null, "osm_id": 10711611908, "osm_type": "nodes" }, "geometry": { "type": "Point", "coordinates": [ 35.6616238, 37.2644625 ] } },
{ "type": "Feature", "properties": { "name": "Saglık Ocagı", "name:en": null, "amenity": "clinic", "building": null, "healthcare": "clinic", "healthcare:speciality": null, "operator:type": null, "capacity:persons": null, "addr:full": null, "addr:city": null, "source": "SafeGraph", "name:tr": null, "osm_id": 10713203245, "osm_type": "nodes" }, "geometry": { "type": "Point", "coordinates": [ 35.8030835, 37.0178089 ] } },
{ "type": "Feature", "properties": { "name": "Nobel Tıp Merkezi", "name:en": null, "amenity": "clinic", "building": null, "healthcare": "clinic", "healthcare:speciality": null, "operator:type": null, "capacity:persons": null, "addr:full": null, "addr:city": null, "source": "SafeGraph", "name:tr": null, "osm_id": 10743152981, "osm_type": "nodes" }, "geometry": { "type": "Point", "coordinates": [ 35.3205715, 37.016132 ] } },
{ "type": "Feature", "properties": { "name": "Yuzbası Saglık Evi", "name:en": null, "amenity": "clinic", "building": null, "healthcare": "clinic", "healthcare:speciality": null, "operator:type": null, "capacity:persons": null, "addr:full": null, "addr:city": null, "source": "SafeGraph", "name:tr": null, "osm_id": 10743542280, "osm_type": "nodes" }, "geometry": { "type": "Point", "coordinates": [ 35.3374346, 36.7245116 ] } },
{ "type": "Feature", "properties": { "name": "Saglık Ocagı", "name:en": null, "amenity": "clinic", "building": null, "healthcare": "clinic", "healthcare:speciality": null, "operator:type": null, "capacity:persons": null, "addr:full": null, "addr:city": null, "source": "SafeGraph", "name:tr": null, "osm_id": 10713155098, "osm_type": "nodes" }, "geometry": { "type": "Point", "coordinates": [ 35.3189233, 36.9901514 ] } },
{ "type": "Feature", "properties": { "name": "Aile Saglıgı Merkezi", "name:en": null, "amenity": "clinic", "building": null, "healthcare": "clinic", "healthcare:speciality": null, "operator:type": null, "capacity:persons": null, "addr:full": null, "addr:city": null, "source": "SafeGraph", "name:tr": null, "osm_id": 10738736266, "osm_type": "nodes" }, "geometry": { "type": "Point", "coordinates": [ 35.3305748, 36.9980607 ] } },
{ "type": "Feature", "properties": { "name": "Mithat Pasa Aile Saglıgı Merkezi", "name:en": null, "amenity": "clinic", "building": null, "healthcare": "clinic", "healthcare:speciality": null, "operator:type": null, "capacity:persons": null, "addr:full": null, "addr:city": null, "source": "SafeGraph", "name:tr": null, "osm_id": 10743090277, "osm_type": "nodes" }, "geometry": { "type": "Point", "coordinates": [ 35.3038505, 37.0067865 ] } },
{ "type": "Feature", "properties": { "name": "Tup Bebek Merkezi", "name:en": null, "amenity": "clinic", "building": null, "healthcare": "clinic", "healthcare:speciality": null, "operator:type": null, "capacity:persons": null, "addr:full": null, "addr:city": null, "source": "SafeGraph", "name:tr": null, "osm_id": 10742629678, "osm_type": "nodes" }, "geometry": { "type": "Point", "coordinates": [ 35.3253762, 36.9951644 ] } },
{ "type": "Feature", "properties": { "name": "Yumurtalık \n\nAile Sağlığı Merkezi", "name:en": null, "amenity": "clinic", "building": null, "healthcare": "clinic", "healthcare:speciality": null, "operator:type": null, "capacity:persons": null, "addr:full": null, "addr:city": null, "source": null, "name:tr": null, "osm_id": 7934242601, "osm_type": "nodes" }, "geometry": { "type": "Point", "coordinates": [ 35.7942657, 36.7758697 ] } },
{ "type": "Feature", "properties": { "name": "Gecitli Aile Sağlığı Merkezi", "name:en": null, "amenity": "clinic", "building": null, "healthcare": "clinic", "healthcare:speciality": null, "operator:type": null, "capacity:persons": null, "addr:full": null, "addr:city": null, "source": "SafeGraph", "name:tr": null, "osm_id": 10736506696, "osm_type": "nodes" }, "geometry": { "type": "Point", "coordinates": [ 35.5674863, 36.909049 ] } },
{ "type": "Feature", "properties": { "name": "Gulpınar Aile Saglıgı Merkezi", "name:en": null, "amenity": "clinic", "building": null, "healthcare": "clinic", "healthcare:speciality": null, "operator:type": null, "capacity:persons": null, "addr:full": null, "addr:city": null, "source": "SafeGraph", "name:tr": null, "osm_id": 10743724173, "osm_type": "nodes" }, "geometry": { "type": "Point", "coordinates": [ 35.3109933, 36.9835976 ] } },
{ "type": "Feature", "properties": { "name": "Altıocak Aile Sağlığı Merkezi", "name:en": null, "amenity": "clinic", "building": null, "healthcare": null, "healthcare:speciality": null, "operator:type": null, "capacity:persons": null, "addr:full": null, "addr:city": null, "source": null, "name:tr": null, "osm_id": 7916895703, "osm_type": "nodes" }, "geometry": { "type": "Point", "coordinates": [ 35.8170967, 37.0413742 ] } },
{ "type": "Feature", "properties": { "name": "Saglık Ocagı", "name:en": null, "amenity": "clinic", "building": null, "healthcare": "clinic", "healthcare:speciality": null, "operator:type": null, "capacity:persons": null, "addr:full": null, "addr:city": null, "source": "SafeGraph", "name:tr": null, "osm_id": 10713201285, "osm_type": "nodes" }, "geometry": { "type": "Point", "coordinates": [ 35.3786024, 36.9739318 ] } },
{ "type": "Feature", "properties": { "name": "Saglık Ocagı", "name:en": null, "amenity": "clinic", "building": null, "healthcare": "clinic", "healthcare:speciality": null, "operator:type": null, "capacity:persons": null, "addr:full": null, "addr:city": null, "source": "SafeGraph", "name:tr": null, "osm_id": 10725707485, "osm_type": "nodes" }, "geometry": { "type": "Point", "coordinates": [ 35.3458946, 36.9760366 ] } },
{ "type": "Feature", "properties": { "name": "Irem Tıp Poliklinigi", "name:en": null, "amenity": "clinic", "building": null, "healthcare": "clinic", "healthcare:speciality": null, "operator:type": null, "capacity:persons": null, "addr:full": null, "addr:city": null, "source": "SafeGraph", "name:tr": null, "osm_id": 10742620678, "osm_type": "nodes" }, "geometry": { "type": "Point", "coordinates": [ 35.3555671, 36.9955517 ] } },
{ "type": "Feature", "properties": { "name": "Aslan Ali Senoz Aile Saglıgı Merkezi", "name:en": null, "amenity": "clinic", "building": null, "healthcare": "clinic", "healthcare:speciality": null, "operator:type": null, "capacity:persons": null, "addr:full": null, "addr:city": null, "source": "SafeGraph", "name:tr": null, "osm_id": 10738754444, "osm_type": "nodes" }, "geometry": { "type": "Point", "coordinates": [ 35.3347805, 37.022274 ] } },
{ "type": "Feature", "properties": { "name": "Kamıslı Aile Saglıgı Merkezi", "name:en": null, "amenity": "clinic", "building": null, "healthcare": "clinic", "healthcare:speciality": null, "operator:type": null, "capacity:persons": null, "addr:full": null, "addr:city": null, "source": "SafeGraph", "name:tr": null, "osm_id": 10743790408, "osm_type": "nodes" }, "geometry": { "type": "Point", "coordinates": [ 34.949614, 37.5558393 ] } },
{ "type": "Feature", "properties": { "name": "Özülkü Tıp Merkezi", "name:en": null, "amenity": "hospital", "building": null, "healthcare": "hospital", "healthcare:speciality": null, "operator:type": null, "capacity:persons": null, "addr:full": null, "addr:city": null, "source": null, "name:tr": null, "osm_id": 5001018421, "osm_type": "nodes" }, "geometry": { "type": "Point", "coordinates": [ 35.3379653, 36.9822595 ] } },
{ "type": "Feature", "properties": { "name": "Saglık Ocagı", "name:en": null, "amenity": "clinic", "building": null, "healthcare": "clinic", "healthcare:speciality": null, "operator:type": null, "capacity:persons": null, "addr:full": null, "addr:city": null, "source": "SafeGraph", "name:tr": null, "osm_id": 10717578311, "osm_type": "nodes" }, "geometry": { "type": "Point", "coordinates": [ 35.6325594, 37.0314711 ] } },
{ "type": "Feature", "properties": { "name": "Karayusuflu Saglık Ocagı", "name:en": null, "amenity": "clinic", "building": null, "healthcare": "clinic", "healthcare:speciality": null, "operator:type": null, "capacity:persons": null, "addr:full": null, "addr:city": null, "source": "SafeGraph", "name:tr": null, "osm_id": 10743100900, "osm_type": "nodes" }, "geometry": { "type": "Point", "coordinates": [ 35.3140135, 37.2007958 ] } },
{ "type": "Feature", "properties": { "name": "Bahcesehir Aile Saglıgı Merkezi", "name:en": null, "amenity": "clinic", "building": null, "healthcare": "clinic", "healthcare:speciality": null, "operator:type": null, "capacity:persons": null, "addr:full": null, "addr:city": null, "source": "SafeGraph", "name:tr": null, "osm_id": 10743775417, "osm_type": "nodes" }, "geometry": { "type": "Point", "coordinates": [ 35.244673, 37.0298973 ] } },
{ "type": "Feature", "properties": { "name": "Tellidere Aile Saglık Merkezi", "name:en": null, "amenity": "clinic", "building": null, "healthcare": "clinic", "healthcare:speciality": null, "operator:type": null, "capacity:persons": null, "addr:full": null, "addr:city": null, "source": "SafeGraph", "name:tr": null, "osm_id": 10743058953, "osm_type": "nodes" }, "geometry": { "type": "Point", "coordinates": [ 35.2940874, 37.0226423 ] } },
{ "type": "Feature", "properties": { "name": "Saglık Ocagı", "name:en": null, "amenity": "clinic", "building": null, "healthcare": "clinic", "healthcare:speciality": null, "operator:type": null, "capacity:persons": null, "addr:full": null, "addr:city": null, "source": "SafeGraph", "name:tr": null, "osm_id": 10713216206, "osm_type": "nodes" }, "geometry": { "type": "Point", "coordinates": [ 35.3049946, 37.0209484 ] } },
{ "type": "Feature", "properties": { "name": "Mercimek Aile Saglıgı Merkezi", "name:en": null, "amenity": "clinic", "building": null, "healthcare": "clinic", "healthcare:speciality": null, "operator:type": null, "capacity:persons": null, "addr:full": null, "addr:city": null, "source": "SafeGraph", "name:tr": null, "osm_id": 10738755360, "osm_type": "nodes" }, "geometry": { "type": "Point", "coordinates": [ 35.795863, 37.105288 ] } },
{ "type": "Feature", "properties": { "name": "Kosreli Saglık Ocagı", "name:en": null, "amenity": "clinic", "building": null, "healthcare": "clinic", "healthcare:speciality": null, "operator:type": null, "capacity:persons": null, "addr:full": null, "addr:city": null, "source": "SafeGraph", "name:tr": null, "osm_id": 10742367708, "osm_type": "nodes" }, "geometry": { "type": "Point", "coordinates": [ 35.9790002, 37.1622126 ] } },
{ "type": "Feature", "properties": { "name": "75 Yıl Emlak Bankası Saglık Ocagı", "name:en": null, "amenity": "clinic", "building": null, "healthcare": "clinic", "healthcare:speciality": null, "operator:type": null, "capacity:persons": null, "addr:full": null, "addr:city": null, "source": "SafeGraph", "name:tr": null, "osm_id": 10738708964, "osm_type": "nodes" }, "geometry": { "type": "Point", "coordinates": [ 35.321862, 37.0012019 ] } },
{ "type": "Feature", "properties": { "name": "TurkKızılayı Kan Bagısı Merkezi", "name:en": null, "amenity": "clinic", "building": null, "healthcare": "clinic", "healthcare:speciality": null, "operator:type": null, "capacity:persons": null, "addr:full": null, "addr:city": null, "source": "SafeGraph", "name:tr": null, "osm_id": 10742428069, "osm_type": "nodes" }, "geometry": { "type": "Point", "coordinates": [ 35.3183024, 37.002045 ] } },
{ "type": "Feature", "properties": { "name": "1 Nolu Aile Saglıgı Merkezi", "name:en": null, "amenity": "clinic", "building": null, "healthcare": "clinic", "healthcare:speciality": null, "operator:type": null, "capacity:persons": null, "addr:full": null, "addr:city": null, "source": "SafeGraph", "name:tr": null, "osm_id": 10739112702, "osm_type": "nodes" }, "geometry": { "type": "Point", "coordinates": [ 35.3141651, 37.0195136 ] } },
{ "type": "Feature", "properties": { "name": "Sumer Saglık Ocagı", "name:en": null, "amenity": "clinic", "building": null, "healthcare": "clinic", "healthcare:speciality": null, "operator:type": null, "capacity:persons": null, "addr:full": null, "addr:city": null, "source": "SafeGraph", "name:tr": null, "osm_id": 10717559016, "osm_type": "nodes" }, "geometry": { "type": "Point", "coordinates": [ 35.3212166, 37.0135277 ] } },
{ "type": "Feature", "properties": { "name": "Adana Askeri Hastanesi", "name:en": null, "amenity": "hospital", "building": null, "healthcare": "hospital", "healthcare:speciality": null, "operator:type": null, "capacity:persons": null, "addr:full": null, "addr:city": null, "source": "SafeGraph", "name:tr": null, "osm_id": 10743704502, "osm_type": "nodes" }, "geometry": { "type": "Point", "coordinates": [ 35.3224977, 37.0162435 ] } },
{ "type": "Feature", "properties": { "name": "Adana Numune Egitim ve Arastırma Hastanesi", "name:en": null, "amenity": "hospital", "building": null, "healthcare": "hospital", "healthcare:speciality": null, "operator:type": null, "capacity:persons": null, "addr:full": null, "addr:city": null, "source": "SafeGraph", "name:tr": null, "osm_id": 10736973993, "osm_type": "nodes" }, "geometry": { "type": "Point", "coordinates": [ 35.3218321, 37.0196232 ] } },
{ "type": "Feature", "properties": { "name": "Ozel Sifa Poliklinigi", "name:en": null, "amenity": "clinic", "building": null, "healthcare": "clinic", "healthcare:speciality": null, "operator:type": null, "capacity:persons": null, "addr:full": null, "addr:city": null, "source": "SafeGraph", "name:tr": null, "osm_id": 10743610697, "osm_type": "nodes" }, "geometry": { "type": "Point", "coordinates": [ 35.3110953, 37.0057999 ] } },
{ "type": "Feature", "properties": { "name": "Dr Zeki Otan DALYAN Estetik & Lazer Klinik", "name:en": null, "amenity": "clinic", "building": null, "healthcare": "clinic", "healthcare:speciality": "medikal_estetik;dermatology;general;body;homeopathy", "operator:type": "private", "capacity:persons": null, "addr:full": null, "addr:city": "Güzelyalı Mahallesi", "source": null, "name:tr": null, "osm_id": 11214442100, "osm_type": "nodes" }, "geometry": { "type": "Point", "coordinates": [ 35.2935767, 37.0486051 ] } },
{ "type": "Feature", "properties": { "name": "Hacetepeliler Cerrahi Tıp Merkezi", "name:en": null, "amenity": "hospital", "building": null, "healthcare": "hospital", "healthcare:speciality": null, "operator:type": null, "capacity:persons": null, "addr:full": null, "addr:city": null, "source": null, "name:tr": null, "osm_id": 4284101191, "osm_type": "nodes" }, "geometry": { "type": "Point", "coordinates": [ 35.3075898, 36.9870027 ] } },
{ "type": "Feature", "properties": { "name": "Haydaroğlu Aile Sağlığı Merkezi", "name:en": null, "amenity": "clinic", "building": null, "healthcare": "clinic", "healthcare:speciality": null, "operator:type": null, "capacity:persons": null, "addr:full": null, "addr:city": null, "source": null, "name:tr": "Haydaroğlu Aile Sağlığı Merkezi", "osm_id": 5001010231, "osm_type": "nodes" }, "geometry": { "type": "Point", "coordinates": [ 35.3387218, 36.9634763 ] } },
{ "type": "Feature", "properties": { "name": null, "name:en": null, "amenity": "clinic", "building": null, "healthcare": "clinic", "healthcare:speciality": null, "operator:type": null, "capacity:persons": null, "addr:full": null, "addr:city": null, "source": null, "name:tr": null, "osm_id": 12240958085, "osm_type": "nodes" }, "geometry": { "type": "Point", "coordinates": [ 35.3648774, 36.9784718 ] } },
{ "type": "Feature", "properties": { "name": "Can Hastanesi", "name:en": null, "amenity": "hospital", "building": null, "healthcare": "hospital", "healthcare:speciality": null, "operator:type": null, "capacity:persons": null, "addr:full": null, "addr:city": null, "source": "SafeGraph", "name:tr": null, "osm_id": 10743142364, "osm_type": "nodes" }, "geometry": { "type": "Point", "coordinates": [ 35.3218365, 36.9953113 ] } },
{ "type": "Feature", "properties": { "name": "Sağlık Ocağı", "name:en": null, "amenity": "clinic", "building": null, "healthcare": "clinic", "healthcare:speciality": null, "operator:type": "government", "capacity:persons": null, "addr:full": null, "addr:city": null, "source": null, "name:tr": null, "osm_id": 12441227367, "osm_type": "nodes" }, "geometry": { "type": "Point", "coordinates": [ 34.9779137, 37.153436 ] } }
]
}
