{
"type": "FeatureCollection",
"name": "healthfacilities_with_refugeecamps",
"crs": { "type": "name", "properties": { "name": "urn:ogc:def:crs:OGC:1.3:CRS84" } },
"features": [
{ "type": "Feature", "properties": { "name": "Furkan Eczanesi", "name:en": null, "amenity": "pharmacy", "building": null, "healthcare": "pharmacy", "healthcare:speciality": null, "operator:type": null, "capacity:persons": null, "addr:full": null, "addr:city": "Mardin", "source": null, "name:tr": null, "osm_id": 4398917895, "osm_type": "nodes" }, "geometry": { "type": "Point", "coordinates": [ 41.3392865, 37.4263328 ] } },
{ "type": "Feature", "properties": { "name": "Yavuzlar Eczanesi", "name:en": null, "amenity": "pharmacy", "building": null, "healthcare": "pharmacy", "healthcare:speciality": null, "operator:type": null, "capacity:persons": null, "addr:full": null, "addr:city": "Mardin", "source": null, "name:tr": null, "osm_id": 4405353090, "osm_type": "nodes" }, "geometry": { "type": "Point", "coordinates": [ 41.3386485, 37.4248237 ] } },
{ "type": "Feature", "properties": { "name": "Şükran Eczanesi", "name:en": null, "amenity": "pharmacy", "building": null, "healthcare": "pharmacy", "healthcare:speciality": null, "operator:type": null, "capacity:persons": null, "addr:full": null, "addr:city": "Mardin", "source": null, "name:tr": null, "osm_id": 10160077218, "osm_type": "nodes" }, "geometry": { "type": "Point", "coordinates": [ 41.3390852, 37.425578 ] } },
{ "type": "Feature", "properties": { "name": "Hülyam Eczanesi", "name:en": null, "amenity": "pharmacy", "building": null, "healthcare": "pharmacy", "healthcare:speciality": null, "operator:type": null, "capacity:persons": null, "addr:full": null, "addr:city": null, "source": null, "name:tr": null, "osm_id": 10160077417, "osm_type": "nodes" }, "geometry": { "type": "Point", "coordinates": [ 41.3421211, 37.4233055 ] } },
{ "type": "Feature", "properties": { "name": "Özkaptan Eczanesi", "name:en": null, "amenity": "pharmacy", "building": null, "healthcare": "pharmacy", "healthcare:speciality": null, "operator:type": null, "capacity:persons": null, "addr:full": null, "addr:city": null, "source": "SafeGraph", "name:tr": null, "osm_id": 10057086718, "osm_type": "nodes" }, "geometry": { "type": "Point", "coordinates": [ 37.112551, 36.7164397 ] } },
{ "type": "Feature", "properties": { "name": "Ana Cocuk Saglıgı ve Aile Planlaması Merkezi", "name:en": null, "amenity": "clinic", "building": null, "healthcare": "clinic", "healthcare:speciality": null, "operator:type": null, "capacity:persons": null, "addr:full": null, "addr:city": null, "source": "SafeGraph", "name:tr": null, "osm_id": 10742461455, "osm_type": "nodes" }, "geometry": { "type": "Point", "coordinates": [ 37.1128459, 36.715575 ] } },
{ "type": "Feature", "properties": { "name": "Devlet Hastanesi", "name:en": null, "amenity": "hospital", "building": null, "healthcare": "hospital", "healthcare:speciality": null, "operator:type": null, "capacity:persons": null, "addr:full": null, "addr:city": null, "source": "SafeGraph", "name:tr": null, "osm_id": 10743610696, "osm_type": "nodes" }, "geometry": { "type": "Point", "coordinates": [ 37.1250893, 36.7157436 ] } },
{ "type": "Feature", "properties": { "name": "İtimat Eczanesi", "name:en": null, "amenity": "pharmacy", "building": null, "healthcare": "pharmacy", "healthcare:speciality": null, "operator:type": null, "capacity:persons": null, "addr:full": null, "addr:city": null, "source": null, "name:tr": null, "osm_id": 11064247005, "osm_type": "nodes" }, "geometry": { "type": "Point", "coordinates": [ 37.1140033, 36.7152581 ] } },
{ "type": "Feature", "properties": { "name": "Ergezen Eczanesi", "name:en": null, "amenity": "pharmacy", "building": null, "healthcare": "pharmacy", "healthcare:speciality": null, "operator:type": null, "capacity:persons": null, "addr:full": null, "addr:city": null, "source": "SafeGraph", "name:tr": null, "osm_id": 10056745718, "osm_type": "nodes" }, "geometry": { "type": "Point", "coordinates": [ 37.1228618, 36.7157407 ] } },
{ "type": "Feature", "properties": { "name": "Omur Eczanesi", "name:en": null, "amenity": "pharmacy", "building": null, "healthcare": "pharmacy", "healthcare:speciality": null, "operator:type": null, "capacity:persons": null, "addr:full": null, "addr:city": null, "source": "SafeGraph", "name:tr": null, "osm_id": 10057086517, "osm_type": "nodes" }, "geometry": { "type": "Point", "coordinates": [ 37.1227448, 36.7200504 ] } },
{ "type": "Feature", "properties": { "name": "Abide Eczanesi", "name:en": null, "amenity": "pharmacy", "building": null, "healthcare": "pharmacy", "healthcare:speciality": null, "operator:type": null, "capacity:persons": null, "addr:full": null, "addr:city": null, "source": "SafeGraph", "name:tr": null, "osm_id": 10057086518, "osm_type": "nodes" }, "geometry": { "type": "Point", "coordinates": [ 37.1139022, 36.7163649 ] } },
{ "type": "Feature", "properties": { "name": "Zeynep Polat Eczanesi", "name:en": null, "amenity": "pharmacy", "building": null, "healthcare": "pharmacy", "healthcare:speciality": null, "operator:type": null, "capacity:persons": null, "addr:full": null, "addr:city": null, "source": "SafeGraph", "name:tr": null, "osm_id": 10692880632, "osm_type": "nodes" }, "geometry": { "type": "Point", "coordinates": [ 37.1143653, 36.7152521 ] } },
{ "type": "Feature", "properties": { "name": "Turkler Eczanesi", "name:en": null, "amenity": "pharmacy", "building": null, "healthcare": "pharmacy", "healthcare:speciality": null, "operator:type": null, "capacity:persons": null, "addr:full": null, "addr:city": null, "source": "SafeGraph", "name:tr": null, "osm_id": 10693365183, "osm_type": "nodes" }, "geometry": { "type": "Point", "coordinates": [ 37.1125521, 36.716417 ] } },
{ "type": "Feature", "properties": { "name": "Adıyaman 82 Yıl Devlet Hastanesi", "name:en": null, "amenity": "hospital", "building": null, "healthcare": "hospital", "healthcare:speciality": null, "operator:type": null, "capacity:persons": null, "addr:full": null, "addr:city": null, "source": "SafeGraph", "name:tr": null, "osm_id": 10743600916, "osm_type": "nodes" }, "geometry": { "type": "Point", "coordinates": [ 38.2489666, 37.7550547 ] } },
{ "type": "Feature", "properties": { "name": "Doruk Aile Saglıgı Merkezi", "name:en": null, "amenity": "clinic", "building": null, "healthcare": "clinic", "healthcare:speciality": null, "operator:type": null, "capacity:persons": null, "addr:full": null, "addr:city": null, "source": "SafeGraph", "name:tr": null, "osm_id": 10743758481, "osm_type": "nodes" }, "geometry": { "type": "Point", "coordinates": [ 35.7621033, 36.8792151 ] } },
{ "type": "Feature", "properties": { "name": "Hacı Salime Hilmi Kırsan Aile Saglıgı Merkezi", "name:en": null, "amenity": "clinic", "building": null, "healthcare": "clinic", "healthcare:speciality": null, "operator:type": null, "capacity:persons": null, "addr:full": null, "addr:city": null, "source": "SafeGraph", "name:tr": null, "osm_id": 10743681307, "osm_type": "nodes" }, "geometry": { "type": "Point", "coordinates": [ 37.344266, 37.0688947 ] } },
{ "type": "Feature", "properties": { "name": "100 Yıl 1 Nolu Aile Saglıgı Merkezi", "name:en": null, "amenity": "clinic", "building": null, "healthcare": "clinic", "healthcare:speciality": null, "operator:type": null, "capacity:persons": null, "addr:full": null, "addr:city": null, "source": "SafeGraph", "name:tr": null, "osm_id": 10743570489, "osm_type": "nodes" }, "geometry": { "type": "Point", "coordinates": [ 35.2444316, 37.0538992 ] } },
{ "type": "Feature", "properties": { "name": "Kılıclı Aile Saglıgı Merkezi", "name:en": null, "amenity": "clinic", "building": null, "healthcare": "clinic", "healthcare:speciality": null, "operator:type": null, "capacity:persons": null, "addr:full": null, "addr:city": null, "source": "SafeGraph", "name:tr": null, "osm_id": 10743575097, "osm_type": "nodes" }, "geometry": { "type": "Point", "coordinates": [ 35.4544379, 37.0811568 ] } },
{ "type": "Feature", "properties": { "name": "Saglık Ocagı", "name:en": null, "amenity": "clinic", "building": null, "healthcare": "clinic", "healthcare:speciality": null, "operator:type": null, "capacity:persons": null, "addr:full": null, "addr:city": null, "source": "SafeGraph", "name:tr": null, "osm_id": 10743700432, "osm_type": "nodes" }, "geometry": { "type": "Point", "coordinates": [ 35.5652909, 36.9083262 ] } },
{ "type": "Feature", "properties": { "name": "Kızılaslan Tıp Merkezi", "name:en": null, "amenity": "clinic", "building": null, "healthcare": "clinic", "healthcare:speciality": null, "operator:type": null, "capacity:persons": null, "addr:full": null, "addr:city": null, "source": "SafeGraph", "name:tr": null, "osm_id": 10743154240, "osm_type": "nodes" }, "geometry": { "type": "Point", "coordinates": [ 37.3513578, 37.0602415 ] } },
{ "type": "Feature", "properties": { "name": "Abdulkadir Konukoglu Saglık Ocagı", "name:en": null, "amenity": "clinic", "building": null, "healthcare": "clinic", "healthcare:speciality": null, "operator:type": null, "capacity:persons": null, "addr:full": null, "addr:city": null, "source": "SafeGraph", "name:tr": null, "osm_id": 10743154833, "osm_type": "nodes" }, "geometry": { "type": "Point", "coordinates": [ 37.3403232, 37.0894182 ] } },
{ "type": "Feature", "properties": { "name": "Hadirli Aile Saglıgı Merkezi", "name:en": null, "amenity": "clinic", "building": null, "healthcare": "clinic", "healthcare:speciality": null, "operator:type": null, "capacity:persons": null, "addr:full": null, "addr:city": null, "source": "SafeGraph", "name:tr": null, "osm_id": 10743113215, "osm_type": "nodes" }, "geometry": { "type": "Point", "coordinates": [ 35.318238, 36.9348642 ] } },
{ "type": "Feature", "properties": { "name": "Sucuzade Aile Saglıgı Merkezi", "name:en": null, "amenity": "clinic", "building": null, "healthcare": "clinic", "healthcare:speciality": null, "operator:type": null, "capacity:persons": null, "addr:full": null, "addr:city": null, "source": "SafeGraph", "name:tr": null, "osm_id": 10743108044, "osm_type": "nodes" }, "geometry": { "type": "Point", "coordinates": [ 35.3309195, 36.9894166 ] } },
{ "type": "Feature", "properties": { "name": "Burak Tıp Merkezi", "name:en": null, "amenity": "clinic", "building": null, "healthcare": "clinic", "healthcare:speciality": null, "operator:type": null, "capacity:persons": null, "addr:full": null, "addr:city": null, "source": "SafeGraph", "name:tr": null, "osm_id": 10743144265, "osm_type": "nodes" }, "geometry": { "type": "Point", "coordinates": [ 37.9787801, 37.0184321 ] } },
{ "type": "Feature", "properties": { "name": "Kırıklı Aile Saglıgı Merkezi", "name:en": null, "amenity": "clinic", "building": null, "healthcare": "clinic", "healthcare:speciality": null, "operator:type": null, "capacity:persons": null, "addr:full": null, "addr:city": null, "source": "SafeGraph", "name:tr": null, "osm_id": 10743153318, "osm_type": "nodes" }, "geometry": { "type": "Point", "coordinates": [ 35.0603114, 37.2544867 ] } },
{ "type": "Feature", "properties": { "name": "Ozel Dogus Cocuk Hastalıkları Dal Merkezi", "name:en": null, "amenity": "clinic", "building": null, "healthcare": "clinic", "healthcare:speciality": null, "operator:type": null, "capacity:persons": null, "addr:full": null, "addr:city": null, "source": "SafeGraph", "name:tr": null, "osm_id": 10743189615, "osm_type": "nodes" }, "geometry": { "type": "Point", "coordinates": [ 35.325142, 37.0036879 ] } },
{ "type": "Feature", "properties": { "name": "Özel Medline Hastanesi", "name:en": null, "amenity": "hospital", "building": null, "healthcare": "hospital", "healthcare:speciality": null, "operator:type": null, "capacity:persons": null, "addr:full": null, "addr:city": null, "source": "SafeGraph", "name:tr": null, "osm_id": 9387859272, "osm_type": "nodes" }, "geometry": { "type": "Point", "coordinates": [ 35.2544365, 37.0532646 ] } },
{ "type": "Feature", "properties": { "name": "Gaziantep Cocuk Hastanesi", "name:en": null, "amenity": "hospital", "building": null, "healthcare": "hospital", "healthcare:speciality": null, "operator:type": null, "capacity:persons": null, "addr:full": null, "addr:city": null, "source": "SafeGraph", "name:tr": null, "osm_id": 10743125225, "osm_type": "nodes" }, "geometry": { "type": "Point", "coordinates": [ 37.3794593, 37.0582487 ] } },
{ "type": "Feature", "properties": { "name": "Ana Cocuk Saglıgı ve Aile Planlama Merkezi", "name:en": null, "amenity": "clinic", "building": null, "healthcare": "clinic", "healthcare:speciality": null, "operator:type": null, "capacity:persons": null, "addr:full": null, "addr:city": null, "source": "SafeGraph", "name:tr": null, "osm_id": 10743147135, "osm_type": "nodes" }, "geometry": { "type": "Point", "coordinates": [ 37.6336549, 37.7864661 ] } },
{ "type": "Feature", "properties": { "name": "Ozgul Saglık Kabini", "name:en": null, "amenity": "clinic", "building": null, "healthcare": "clinic", "healthcare:speciality": null, "operator:type": null, "capacity:persons": null, "addr:full": null, "addr:city": null, "source": "SafeGraph", "name:tr": null, "osm_id": 10743152484, "osm_type": "nodes" }, "geometry": { "type": "Point", "coordinates": [ 35.3567304, 36.9821535 ] } },
{ "type": "Feature", "properties": { "name": "Saglık Ocagı", "name:en": null, "amenity": "clinic", "building": null, "healthcare": "clinic", "healthcare:speciality": null, "operator:type": null, "capacity:persons": null, "addr:full": null, "addr:city": null, "source": "SafeGraph", "name:tr": null, "osm_id": 10743164155, "osm_type": "nodes" }, "geometry": { "type": "Point", "coordinates": [ 40.647908, 37.081298 ] } },
{ "type": "Feature", "properties": { "name": "Ozel Adana Hiperbarik Oksijen Tedavi Merkezi", "name:en": null, "amenity": "clinic", "building": null, "healthcare": "clinic", "healthcare:speciality": null, "operator:type": null, "capacity:persons": null, "addr:full": null, "addr:city": null, "source": "SafeGraph", "name:tr": null, "osm_id": 10743134757, "osm_type": "nodes" }, "geometry": { "type": "Point", "coordinates": [ 35.2676837, 37.0502087 ] } },
{ "type": "Feature", "properties": { "name": "Feke Toplum Saglıgı Merkezi", "name:en": null, "amenity": "clinic", "building": null, "healthcare": "clinic", "healthcare:speciality": null, "operator:type": null, "capacity:persons": null, "addr:full": null, "addr:city": null, "source": "SafeGraph", "name:tr": null, "osm_id": 10742634189, "osm_type": "nodes" }, "geometry": { "type": "Point", "coordinates": [ 35.9113326, 37.8147696 ] } },
{ "type": "Feature", "properties": { "name": "Aile Saglıgı Merkezi", "name:en": null, "amenity": "clinic", "building": null, "healthcare": "clinic", "healthcare:speciality": null, "operator:type": null, "capacity:persons": null, "addr:full": null, "addr:city": null, "source": "SafeGraph", "name:tr": null, "osm_id": 10742609434, "osm_type": "nodes" }, "geometry": { "type": "Point", "coordinates": [ 38.8113561, 37.2017064 ] } },
{ "type": "Feature", "properties": { "name": "Sanlıurfa Kadın Hastalıkları ve Dogum Hastanesi", "name:en": null, "amenity": "hospital", "building": null, "healthcare": "hospital", "healthcare:speciality": null, "operator:type": null, "capacity:persons": null, "addr:full": null, "addr:city": null, "source": "SafeGraph", "name:tr": null, "osm_id": 10742628516, "osm_type": "nodes" }, "geometry": { "type": "Point", "coordinates": [ 38.7814469, 37.1647747 ] } },
{ "type": "Feature", "properties": { "name": "Diyarbakır Kadın Dogum ve Cocuk Hastalıkları Hastanesi", "name:en": null, "amenity": "hospital", "building": null, "healthcare": "hospital", "healthcare:speciality": null, "operator:type": null, "capacity:persons": null, "addr:full": null, "addr:city": null, "source": "SafeGraph", "name:tr": null, "osm_id": 10742628517, "osm_type": "nodes" }, "geometry": { "type": "Point", "coordinates": [ 38.9075985, 37.4453156 ] } },
{ "type": "Feature", "properties": { "name": "Saglık Ocagı", "name:en": null, "amenity": "clinic", "building": null, "healthcare": "clinic", "healthcare:speciality": null, "operator:type": null, "capacity:persons": null, "addr:full": null, "addr:city": null, "source": "SafeGraph", "name:tr": null, "osm_id": 10742587484, "osm_type": "nodes" }, "geometry": { "type": "Point", "coordinates": [ 38.80642, 37.1660215 ] } },
{ "type": "Feature", "properties": { "name": "Mavi Nokta Hastanesi", "name:en": null, "amenity": "hospital", "building": null, "healthcare": "hospital", "healthcare:speciality": null, "operator:type": null, "capacity:persons": null, "addr:full": null, "addr:city": null, "source": "SafeGraph", "name:tr": null, "osm_id": 10742440865, "osm_type": "nodes" }, "geometry": { "type": "Point", "coordinates": [ 38.3002107, 38.351623 ] } },
{ "type": "Feature", "properties": { "name": "Saglık Ocagı", "name:en": null, "amenity": "clinic", "building": null, "healthcare": "clinic", "healthcare:speciality": null, "operator:type": null, "capacity:persons": null, "addr:full": null, "addr:city": null, "source": "SafeGraph", "name:tr": null, "osm_id": 10742455124, "osm_type": "nodes" }, "geometry": { "type": "Point", "coordinates": [ 38.2724525, 38.3139764 ] } },
{ "type": "Feature", "properties": { "name": "Saglık Ocagı", "name:en": null, "amenity": "clinic", "building": null, "healthcare": "clinic", "healthcare:speciality": null, "operator:type": null, "capacity:persons": null, "addr:full": null, "addr:city": null, "source": "SafeGraph", "name:tr": null, "osm_id": 10742461451, "osm_type": "nodes" }, "geometry": { "type": "Point", "coordinates": [ 37.722479, 38.508514 ] } },
{ "type": "Feature", "properties": { "name": "Adıyaman Dogum ve Cocuk Bakımevi Hastanesi", "name:en": null, "amenity": "hospital", "building": null, "healthcare": "hospital", "healthcare:speciality": null, "operator:type": null, "capacity:persons": null, "addr:full": null, "addr:city": null, "source": "SafeGraph", "name:tr": null, "osm_id": 10742463786, "osm_type": "nodes" }, "geometry": { "type": "Point", "coordinates": [ 38.2931484, 37.7815884 ] } },
{ "type": "Feature", "properties": { "name": "Kırmıtlı Aile Saglıgı Merkezi", "name:en": null, "amenity": "clinic", "building": null, "healthcare": "clinic", "healthcare:speciality": null, "operator:type": null, "capacity:persons": null, "addr:full": null, "addr:city": null, "source": "SafeGraph", "name:tr": null, "osm_id": 10742632544, "osm_type": "nodes" }, "geometry": { "type": "Point", "coordinates": [ 35.9394508, 37.4523631 ] } },
{ "type": "Feature", "properties": { "name": "Balaban Aile Saglıgı Merkezi", "name:en": null, "amenity": "clinic", "building": null, "healthcare": "clinic", "healthcare:speciality": null, "operator:type": null, "capacity:persons": null, "addr:full": null, "addr:city": null, "source": "SafeGraph", "name:tr": null, "osm_id": 10742435478, "osm_type": "nodes" }, "geometry": { "type": "Point", "coordinates": [ 37.5853001, 38.4622526 ] } },
{ "type": "Feature", "properties": { "name": "Kuluncak Toplum Saglıgı Merkezi", "name:en": null, "amenity": "clinic", "building": null, "healthcare": "clinic", "healthcare:speciality": null, "operator:type": null, "capacity:persons": null, "addr:full": null, "addr:city": null, "source": "SafeGraph", "name:tr": null, "osm_id": 10742435523, "osm_type": "nodes" }, "geometry": { "type": "Point", "coordinates": [ 37.6703744, 38.8851474 ] } },
{ "type": "Feature", "properties": { "name": "Adafa Aile Saglıgı Merkezi", "name:en": null, "amenity": "clinic", "building": null, "healthcare": "clinic", "healthcare:speciality": null, "operator:type": null, "capacity:persons": null, "addr:full": null, "addr:city": null, "source": "SafeGraph", "name:tr": null, "osm_id": 10742447027, "osm_type": "nodes" }, "geometry": { "type": "Point", "coordinates": [ 38.296359, 38.3347683 ] } },
{ "type": "Feature", "properties": { "name": "Altınsehir Aile Saglıgı Merkezi", "name:en": null, "amenity": "clinic", "building": null, "healthcare": "clinic", "healthcare:speciality": null, "operator:type": null, "capacity:persons": null, "addr:full": null, "addr:city": null, "source": "SafeGraph", "name:tr": null, "osm_id": 10742453825, "osm_type": "nodes" }, "geometry": { "type": "Point", "coordinates": [ 38.2296257, 37.7418659 ] } },
{ "type": "Feature", "properties": { "name": "Tastepe Aile Saglıgı Merkezi", "name:en": null, "amenity": "clinic", "building": null, "healthcare": "clinic", "healthcare:speciality": null, "operator:type": null, "capacity:persons": null, "addr:full": null, "addr:city": null, "source": "SafeGraph", "name:tr": null, "osm_id": 10742461381, "osm_type": "nodes" }, "geometry": { "type": "Point", "coordinates": [ 38.3200054, 38.3674937 ] } },
{ "type": "Feature", "properties": { "name": "Saglık Ocagı", "name:en": null, "amenity": "clinic", "building": null, "healthcare": "clinic", "healthcare:speciality": null, "operator:type": null, "capacity:persons": null, "addr:full": null, "addr:city": null, "source": "SafeGraph", "name:tr": null, "osm_id": 10742463787, "osm_type": "nodes" }, "geometry": { "type": "Point", "coordinates": [ 38.9278691, 37.1061907 ] } },
{ "type": "Feature", "properties": { "name": "Yalnızdut Saglık Ocagı", "name:en": null, "amenity": "clinic", "building": null, "healthcare": "clinic", "healthcare:speciality": null, "operator:type": null, "capacity:persons": null, "addr:full": null, "addr:city": null, "source": "SafeGraph", "name:tr": null, "osm_id": 10742388496, "osm_type": "nodes" }, "geometry": { "type": "Point", "coordinates": [ 36.0412757, 37.2761978 ] } },
{ "type": "Feature", "properties": { "name": "Merkez Aile Saglıgı Merkezi", "name:en": null, "amenity": "clinic", "building": null, "healthcare": "clinic", "healthcare:speciality": null, "operator:type": null, "capacity:persons": null, "addr:full": null, "addr:city": null, "source": "SafeGraph", "name:tr": null, "osm_id": 10742426079, "osm_type": "nodes" }, "geometry": { "type": "Point", "coordinates": [ 37.5042678, 38.5481444 ] } },
{ "type": "Feature", "properties": { "name": "Erkenek Aile Saglıgı Merkezi", "name:en": null, "amenity": "clinic", "building": null, "healthcare": "clinic", "healthcare:speciality": null, "operator:type": null, "capacity:persons": null, "addr:full": null, "addr:city": null, "source": "SafeGraph", "name:tr": null, "osm_id": 10742450979, "osm_type": "nodes" }, "geometry": { "type": "Point", "coordinates": [ 37.5116493, 38.5463404 ] } },
{ "type": "Feature", "properties": { "name": "Saglık Ocagı", "name:en": null, "amenity": "clinic", "building": null, "healthcare": "clinic", "healthcare:speciality": null, "operator:type": null, "capacity:persons": null, "addr:full": null, "addr:city": null, "source": "SafeGraph", "name:tr": null, "osm_id": 10742459481, "osm_type": "nodes" }, "geometry": { "type": "Point", "coordinates": [ 37.8917934, 38.9539316 ] } },
{ "type": "Feature", "properties": { "name": "2 Nolu Aile Saglıgı Merkezi", "name:en": null, "amenity": "clinic", "building": null, "healthcare": "clinic", "healthcare:speciality": null, "operator:type": null, "capacity:persons": null, "addr:full": null, "addr:city": null, "source": "SafeGraph", "name:tr": null, "osm_id": 10742459482, "osm_type": "nodes" }, "geometry": { "type": "Point", "coordinates": [ 35.4234906, 37.031925 ] } },
{ "type": "Feature", "properties": { "name": "Asagı Cardak Saglık Ocagı", "name:en": null, "amenity": "clinic", "building": null, "healthcare": "clinic", "healthcare:speciality": null, "operator:type": null, "capacity:persons": null, "addr:full": null, "addr:city": null, "source": "SafeGraph", "name:tr": null, "osm_id": 10742459483, "osm_type": "nodes" }, "geometry": { "type": "Point", "coordinates": [ 37.7890487, 37.0063954 ] } },
{ "type": "Feature", "properties": { "name": "Sevgi Hastanesi", "name:en": null, "amenity": "hospital", "building": null, "healthcare": "hospital", "healthcare:speciality": null, "operator:type": null, "capacity:persons": null, "addr:full": null, "addr:city": null, "source": "SafeGraph", "name:tr": null, "osm_id": 10742461450, "osm_type": "nodes" }, "geometry": { "type": "Point", "coordinates": [ 38.3209415, 38.3491156 ] } },
{ "type": "Feature", "properties": { "name": "Sofular Saglık Ocagı", "name:en": null, "amenity": "clinic", "building": null, "healthcare": "clinic", "healthcare:speciality": null, "operator:type": null, "capacity:persons": null, "addr:full": null, "addr:city": null, "source": "SafeGraph", "name:tr": null, "osm_id": 10742469687, "osm_type": "nodes" }, "geometry": { "type": "Point", "coordinates": [ 37.5503911, 38.9394608 ] } },
{ "type": "Feature", "properties": { "name": "Sanayi Saglık Ocagı", "name:en": null, "amenity": "clinic", "building": null, "healthcare": "clinic", "healthcare:speciality": null, "operator:type": null, "capacity:persons": null, "addr:full": null, "addr:city": null, "source": "SafeGraph", "name:tr": null, "osm_id": 10742476094, "osm_type": "nodes" }, "geometry": { "type": "Point", "coordinates": [ 36.9615175, 37.5629984 ] } },
{ "type": "Feature", "properties": { "name": "Saglık Ocagı", "name:en": null, "amenity": "clinic", "building": null, "healthcare": "clinic", "healthcare:speciality": null, "operator:type": null, "capacity:persons": null, "addr:full": null, "addr:city": null, "source": "SafeGraph", "name:tr": null, "osm_id": 10742477580, "osm_type": "nodes" }, "geometry": { "type": "Point", "coordinates": [ 38.5371409, 38.3456237 ] } },
{ "type": "Feature", "properties": { "name": "Toplum Saglıgı Merkezi", "name:en": null, "amenity": "clinic", "building": null, "healthcare": "clinic", "healthcare:speciality": null, "operator:type": null, "capacity:persons": null, "addr:full": null, "addr:city": null, "source": "SafeGraph", "name:tr": null, "osm_id": 10742477581, "osm_type": "nodes" }, "geometry": { "type": "Point", "coordinates": [ 39.0388025, 38.3129515 ] } },
{ "type": "Feature", "properties": { "name": "Saglık Ocagı", "name:en": null, "amenity": "clinic", "building": null, "healthcare": "clinic", "healthcare:speciality": null, "operator:type": null, "capacity:persons": null, "addr:full": null, "addr:city": null, "source": "SafeGraph", "name:tr": null, "osm_id": 10742479025, "osm_type": "nodes" }, "geometry": { "type": "Point", "coordinates": [ 38.6605494, 38.351522 ] } },
{ "type": "Feature", "properties": { "name": "Saglık Ocagı", "name:en": null, "amenity": "clinic", "building": null, "healthcare": "clinic", "healthcare:speciality": null, "operator:type": null, "capacity:persons": null, "addr:full": null, "addr:city": null, "source": "SafeGraph", "name:tr": null, "osm_id": 10742388442, "osm_type": "nodes" }, "geometry": { "type": "Point", "coordinates": [ 36.2079857, 36.2280777 ] } },
{ "type": "Feature", "properties": { "name": "Cevdetiye Aile Saglık Merkezi", "name:en": null, "amenity": "clinic", "building": null, "healthcare": "clinic", "healthcare:speciality": null, "operator:type": null, "capacity:persons": null, "addr:full": null, "addr:city": null, "source": "SafeGraph", "name:tr": null, "osm_id": 10742412497, "osm_type": "nodes" }, "geometry": { "type": "Point", "coordinates": [ 36.197855, 37.1357282 ] } },
{ "type": "Feature", "properties": { "name": "Saglık Ocagı", "name:en": null, "amenity": "clinic", "building": null, "healthcare": "clinic", "healthcare:speciality": null, "operator:type": null, "capacity:persons": null, "addr:full": null, "addr:city": null, "source": "SafeGraph", "name:tr": null, "osm_id": 10742466054, "osm_type": "nodes" }, "geometry": { "type": "Point", "coordinates": [ 38.2510565, 38.3685726 ] } },
{ "type": "Feature", "properties": { "name": "Saglık Ocagı", "name:en": null, "amenity": "clinic", "building": null, "healthcare": "clinic", "healthcare:speciality": null, "operator:type": null, "capacity:persons": null, "addr:full": null, "addr:city": null, "source": "SafeGraph", "name:tr": null, "osm_id": 10742469840, "osm_type": "nodes" }, "geometry": { "type": "Point", "coordinates": [ 37.7549444, 38.4842365 ] } },
{ "type": "Feature", "properties": { "name": "Saglık Ocagı", "name:en": null, "amenity": "clinic", "building": null, "healthcare": "clinic", "healthcare:speciality": null, "operator:type": null, "capacity:persons": null, "addr:full": null, "addr:city": null, "source": "SafeGraph", "name:tr": null, "osm_id": 10742477579, "osm_type": "nodes" }, "geometry": { "type": "Point", "coordinates": [ 37.8884085, 38.77883 ] } },
{ "type": "Feature", "properties": { "name": "Yaygın Aile Saglıgı Merkezi", "name:en": null, "amenity": "clinic", "building": null, "healthcare": "clinic", "healthcare:speciality": null, "operator:type": null, "capacity:persons": null, "addr:full": null, "addr:city": null, "source": "SafeGraph", "name:tr": null, "osm_id": 10742478769, "osm_type": "nodes" }, "geometry": { "type": "Point", "coordinates": [ 38.505979, 38.2923197 ] } },
{ "type": "Feature", "properties": { "name": "TurkKızılayı Kan Bagısı Merkezi", "name:en": null, "amenity": "clinic", "building": null, "healthcare": "clinic", "healthcare:speciality": null, "operator:type": null, "capacity:persons": null, "addr:full": null, "addr:city": null, "source": "SafeGraph", "name:tr": null, "osm_id": 10742483746, "osm_type": "nodes" }, "geometry": { "type": "Point", "coordinates": [ 36.9512795, 37.5650501 ] } },
{ "type": "Feature", "properties": { "name": "Aile Saglıgı Merkezi", "name:en": null, "amenity": "clinic", "building": null, "healthcare": "clinic", "healthcare:speciality": null, "operator:type": null, "capacity:persons": null, "addr:full": null, "addr:city": null, "source": "SafeGraph", "name:tr": null, "osm_id": 10742434126, "osm_type": "nodes" }, "geometry": { "type": "Point", "coordinates": [ 38.2344858, 38.0328139 ] } },
{ "type": "Feature", "properties": { "name": "Nergiz Eczanesi", "name:en": null, "amenity": "pharmacy", "building": null, "healthcare": "pharmacy", "healthcare:speciality": null, "operator:type": null, "capacity:persons": null, "addr:full": null, "addr:city": "Adana", "source": null, "name:tr": null, "osm_id": 10170918819, "osm_type": "nodes" }, "geometry": { "type": "Point", "coordinates": [ 35.2229133, 36.9786952 ] } },
{ "type": "Feature", "properties": { "name": "Sarıhamzalı Eczanesi", "name:en": null, "amenity": "pharmacy", "building": null, "healthcare": "pharmacy", "healthcare:speciality": null, "operator:type": null, "capacity:persons": null, "addr:full": null, "addr:city": "Adana", "source": null, "name:tr": null, "osm_id": 10170918618, "osm_type": "nodes" }, "geometry": { "type": "Point", "coordinates": [ 35.2224309, 36.978885 ] } },
{ "type": "Feature", "properties": { "name": "Akpınar Eczanesi", "name:en": null, "amenity": "pharmacy", "building": null, "healthcare": "pharmacy", "healthcare:speciality": null, "operator:type": null, "capacity:persons": null, "addr:full": null, "addr:city": "Adana", "source": null, "name:tr": null, "osm_id": 10170918718, "osm_type": "nodes" }, "geometry": { "type": "Point", "coordinates": [ 35.2226963, 36.9787288 ] } },
{ "type": "Feature", "properties": { "name": "Saglık Ocagı", "name:en": null, "amenity": "clinic", "building": null, "healthcare": "clinic", "healthcare:speciality": null, "operator:type": null, "capacity:persons": null, "addr:full": null, "addr:city": null, "source": "SafeGraph", "name:tr": null, "osm_id": 10739093173, "osm_type": "nodes" }, "geometry": { "type": "Point", "coordinates": [ 37.7921721, 37.0091643 ] } },
{ "type": "Feature", "properties": { "name": "Sehit Erkut Akbay Aile Saglıgı Merkezi", "name:en": null, "amenity": "clinic", "building": null, "healthcare": "clinic", "healthcare:speciality": null, "operator:type": null, "capacity:persons": null, "addr:full": null, "addr:city": null, "source": "SafeGraph", "name:tr": null, "osm_id": 10739125354, "osm_type": "nodes" }, "geometry": { "type": "Point", "coordinates": [ 35.3375449, 36.9755209 ] } },
{ "type": "Feature", "properties": { "name": "Adana Devlet Hastanesi Semt Poliklinigi", "name:en": null, "amenity": "hospital", "building": null, "healthcare": "hospital", "healthcare:speciality": null, "operator:type": null, "capacity:persons": null, "addr:full": null, "addr:city": null, "source": "SafeGraph", "name:tr": null, "osm_id": 10739144711, "osm_type": "nodes" }, "geometry": { "type": "Point", "coordinates": [ 35.3381975, 36.9834692 ] } },
{ "type": "Feature", "properties": { "name": "Şaşmaz Eczanesi", "name:en": null, "amenity": "pharmacy", "building": null, "healthcare": "pharmacy", "healthcare:speciality": null, "operator:type": null, "capacity:persons": null, "addr:full": null, "addr:city": null, "source": null, "name:tr": null, "osm_id": 10157295720, "osm_type": "nodes" }, "geometry": { "type": "Point", "coordinates": [ 36.2570595, 37.0652856 ] } },
{ "type": "Feature", "properties": { "name": "Yesilevler Saglık Ocagı", "name:en": null, "amenity": "clinic", "building": null, "healthcare": "clinic", "healthcare:speciality": null, "operator:type": null, "capacity:persons": null, "addr:full": null, "addr:city": null, "source": "SafeGraph", "name:tr": null, "osm_id": 10738771286, "osm_type": "nodes" }, "geometry": { "type": "Point", "coordinates": [ 35.2883587, 37.000312 ] } },
{ "type": "Feature", "properties": { "name": "Merkez Toplum Saglıgı Merkezi", "name:en": null, "amenity": "clinic", "building": null, "healthcare": "clinic", "healthcare:speciality": null, "operator:type": null, "capacity:persons": null, "addr:full": null, "addr:city": null, "source": "SafeGraph", "name:tr": null, "osm_id": 10739083996, "osm_type": "nodes" }, "geometry": { "type": "Point", "coordinates": [ 37.9308182, 38.8167062 ] } },
{ "type": "Feature", "properties": { "name": "Saglık Ocagı", "name:en": null, "amenity": "clinic", "building": null, "healthcare": "clinic", "healthcare:speciality": null, "operator:type": null, "capacity:persons": null, "addr:full": null, "addr:city": null, "source": "SafeGraph", "name:tr": null, "osm_id": 10739117520, "osm_type": "nodes" }, "geometry": { "type": "Point", "coordinates": [ 37.8534365, 38.1581437 ] } },
{ "type": "Feature", "properties": { "name": "Devlet Hastanesi", "name:en": null, "amenity": "hospital", "building": null, "healthcare": "hospital", "healthcare:speciality": null, "operator:type": null, "capacity:persons": null, "addr:full": null, "addr:city": null, "source": "SafeGraph", "name:tr": null, "osm_id": 10738781594, "osm_type": "nodes" }, "geometry": { "type": "Point", "coordinates": [ 36.8958664, 38.236994 ] } },
{ "type": "Feature", "properties": { "name": "Sağlık Ocağı", "name:en": null, "amenity": "clinic", "building": null, "healthcare": "clinic", "healthcare:speciality": null, "operator:type": null, "capacity:persons": null, "addr:full": null, "addr:city": null, "source": "SafeGraph", "name:tr": null, "osm_id": 10738690993, "osm_type": "nodes" }, "geometry": { "type": "Point", "coordinates": [ 38.3133227, 38.3426996 ] } },
{ "type": "Feature", "properties": { "name": "Etekli Saglık Ocagı", "name:en": null, "amenity": "clinic", "building": null, "healthcare": "clinic", "healthcare:speciality": null, "operator:type": null, "capacity:persons": null, "addr:full": null, "addr:city": null, "source": "SafeGraph", "name:tr": null, "osm_id": 10738774218, "osm_type": "nodes" }, "geometry": { "type": "Point", "coordinates": [ 35.2311426, 37.4247157 ] } },
{ "type": "Feature", "properties": { "name": "Saglık Ocagı", "name:en": null, "amenity": "clinic", "building": null, "healthcare": "clinic", "healthcare:speciality": null, "operator:type": null, "capacity:persons": null, "addr:full": null, "addr:city": null, "source": "SafeGraph", "name:tr": null, "osm_id": 10738715622, "osm_type": "nodes" }, "geometry": { "type": "Point", "coordinates": [ 38.2853338, 38.336586 ] } },
{ "type": "Feature", "properties": { "name": "Sahinbey Arastırma ve Uygulama Hastanesi", "name:en": null, "amenity": "hospital", "building": null, "healthcare": "hospital", "healthcare:speciality": null, "operator:type": null, "capacity:persons": null, "addr:full": null, "addr:city": null, "source": "SafeGraph", "name:tr": null, "osm_id": 10738716713, "osm_type": "nodes" }, "geometry": { "type": "Point", "coordinates": [ 37.3189168, 37.0406111 ] } },
{ "type": "Feature", "properties": { "name": "Saglık Ocagı", "name:en": null, "amenity": "clinic", "building": null, "healthcare": "clinic", "healthcare:speciality": null, "operator:type": null, "capacity:persons": null, "addr:full": null, "addr:city": null, "source": "SafeGraph", "name:tr": null, "osm_id": 10738757650, "osm_type": "nodes" }, "geometry": { "type": "Point", "coordinates": [ 38.1802207, 38.5954324 ] } },
{ "type": "Feature", "properties": { "name": "Besevler Saglık Ocagı", "name:en": null, "amenity": "clinic", "building": null, "healthcare": "clinic", "healthcare:speciality": null, "operator:type": null, "capacity:persons": null, "addr:full": null, "addr:city": null, "source": "SafeGraph", "name:tr": null, "osm_id": 10738765606, "osm_type": "nodes" }, "geometry": { "type": "Point", "coordinates": [ 37.1410337, 36.7132004 ] } },
{ "type": "Feature", "properties": { "name": "Bozova Ilce Hastanesi", "name:en": null, "amenity": "hospital", "building": null, "healthcare": "hospital", "healthcare:speciality": null, "operator:type": null, "capacity:persons": null, "addr:full": null, "addr:city": null, "source": "SafeGraph", "name:tr": null, "osm_id": 10738769375, "osm_type": "nodes" }, "geometry": { "type": "Point", "coordinates": [ 38.5274327, 37.3623977 ] } },
{ "type": "Feature", "properties": { "name": "Gozde Hastanesi", "name:en": null, "amenity": "hospital", "building": null, "healthcare": "hospital", "healthcare:speciality": null, "operator:type": null, "capacity:persons": null, "addr:full": null, "addr:city": null, "source": "SafeGraph", "name:tr": null, "osm_id": 10738622584, "osm_type": "nodes" }, "geometry": { "type": "Point", "coordinates": [ 38.3047815, 38.3477331 ] } },
{ "type": "Feature", "properties": { "name": "Faruk Arıkan Sağlık Ocağı", "name:en": null, "amenity": "clinic", "building": null, "healthcare": "clinic", "healthcare:speciality": null, "operator:type": null, "capacity:persons": null, "addr:full": null, "addr:city": null, "source": "SafeGraph", "name:tr": null, "osm_id": 10738661624, "osm_type": "nodes" }, "geometry": { "type": "Point", "coordinates": [ 36.9358206, 37.5668189 ] } },
{ "type": "Feature", "properties": { "name": "Saglık Ocagı", "name:en": null, "amenity": "clinic", "building": null, "healthcare": "clinic", "healthcare:speciality": null, "operator:type": null, "capacity:persons": null, "addr:full": null, "addr:city": null, "source": "SafeGraph", "name:tr": null, "osm_id": 10738762980, "osm_type": "nodes" }, "geometry": { "type": "Point", "coordinates": [ 37.6161583, 38.0240631 ] } },
{ "type": "Feature", "properties": { "name": "Sağlık Ocağı", "name:en": null, "amenity": "clinic", "building": null, "healthcare": "clinic", "healthcare:speciality": null, "operator:type": null, "capacity:persons": null, "addr:full": null, "addr:city": null, "source": "SafeGraph", "name:tr": null, "osm_id": 10738661011, "osm_type": "nodes" }, "geometry": { "type": "Point", "coordinates": [ 38.0477062, 38.2907008 ] } },
{ "type": "Feature", "properties": { "name": "Sağlık Ocağı", "name:en": null, "amenity": "clinic", "building": null, "healthcare": "clinic", "healthcare:speciality": null, "operator:type": null, "capacity:persons": null, "addr:full": null, "addr:city": null, "source": "SafeGraph", "name:tr": null, "osm_id": 10736863587, "osm_type": "nodes" }, "geometry": { "type": "Point", "coordinates": [ 37.3395601, 37.0599076 ] } },
{ "type": "Feature", "properties": { "name": "Avukat Cengiz Gokcek Devlet Hastanesi", "name:en": null, "amenity": "hospital", "building": null, "healthcare": "hospital", "healthcare:speciality": null, "operator:type": null, "capacity:persons": null, "addr:full": null, "addr:city": null, "source": "SafeGraph", "name:tr": null, "osm_id": 10737061558, "osm_type": "nodes" }, "geometry": { "type": "Point", "coordinates": [ 37.3155033, 37.0588123 ] } },
{ "type": "Feature", "properties": { "name": "Gaziantep Çocuk Hastanesi", "name:en": null, "amenity": "hospital", "building": null, "healthcare": "hospital", "healthcare:speciality": null, "operator:type": null, "capacity:persons": null, "addr:full": null, "addr:city": null, "source": "SafeGraph", "name:tr": null, "osm_id": 10737061559, "osm_type": "nodes" }, "geometry": { "type": "Point", "coordinates": [ 37.3174534, 37.0572701 ] } },
{ "type": "Feature", "properties": { "name": "Yakapınar Aile Saglıgı Merkezi", "name:en": null, "amenity": "clinic", "building": null, "healthcare": "clinic", "healthcare:speciality": null, "operator:type": null, "capacity:persons": null, "addr:full": null, "addr:city": null, "source": "SafeGraph", "name:tr": null, "osm_id": 10736930644, "osm_type": "nodes" }, "geometry": { "type": "Point", "coordinates": [ 35.6095353, 36.9602035 ] } },
{ "type": "Feature", "properties": { "name": "Kayapınar Aile Saglıgı Merkezi", "name:en": null, "amenity": "clinic", "building": null, "healthcare": "clinic", "healthcare:speciality": null, "operator:type": null, "capacity:persons": null, "addr:full": null, "addr:city": null, "source": "SafeGraph", "name:tr": null, "osm_id": 10736524503, "osm_type": "nodes" }, "geometry": { "type": "Point", "coordinates": [ 38.9547257, 37.5891216 ] } },
{ "type": "Feature", "properties": { "name": "Esenocak Eczanesi", "name:en": null, "amenity": "pharmacy", "building": null, "healthcare": "pharmacy", "healthcare:speciality": null, "operator:type": null, "capacity:persons": null, "addr:full": null, "addr:city": "Hatay", "source": null, "name:tr": null, "osm_id": 11373154408, "osm_type": "nodes" }, "geometry": { "type": "Point", "coordinates": [ 36.1638667, 36.1957771 ] } },
{ "type": "Feature", "properties": { "name": "SAĞLIK ECZANESİ", "name:en": null, "amenity": "pharmacy", "building": null, "healthcare": "pharmacy", "healthcare:speciality": null, "operator:type": null, "capacity:persons": null, "addr:full": null, "addr:city": null, "source": null, "name:tr": null, "osm_id": 11372383625, "osm_type": "nodes" }, "geometry": { "type": "Point", "coordinates": [ 36.266156, 37.0836483 ] } },
{ "type": "Feature", "properties": { "name": "Abı Hayat Eczanesi", "name:en": null, "amenity": "pharmacy", "building": null, "healthcare": "pharmacy", "healthcare:speciality": null, "operator:type": null, "capacity:persons": null, "addr:full": null, "addr:city": null, "source": null, "name:tr": null, "osm_id": 10157727819, "osm_type": "nodes" }, "geometry": { "type": "Point", "coordinates": [ 36.2660482, 37.0836153 ] } },
{ "type": "Feature", "properties": { "name": "Sarpkaya Eczanesi", "name:en": null, "amenity": "pharmacy", "building": null, "healthcare": "pharmacy", "healthcare:speciality": null, "operator:type": null, "capacity:persons": null, "addr:full": null, "addr:city": null, "source": null, "name:tr": null, "osm_id": 10157747519, "osm_type": "nodes" }, "geometry": { "type": "Point", "coordinates": [ 36.2658195, 37.0835806 ] } },
{ "type": "Feature", "properties": { "name": "Deveciler Eczanesi", "name:en": null, "amenity": "pharmacy", "building": null, "healthcare": "pharmacy", "healthcare:speciality": null, "operator:type": null, "capacity:persons": null, "addr:full": null, "addr:city": null, "source": null, "name:tr": null, "osm_id": 10157747620, "osm_type": "nodes" }, "geometry": { "type": "Point", "coordinates": [ 36.2660874, 37.0836277 ] } },
{ "type": "Feature", "properties": { "name": "Burak Eczanesi", "name:en": null, "amenity": "pharmacy", "building": null, "healthcare": "pharmacy", "healthcare:speciality": null, "operator:type": null, "capacity:persons": null, "addr:full": null, "addr:city": null, "source": null, "name:tr": null, "osm_id": 10157748117, "osm_type": "nodes" }, "geometry": { "type": "Point", "coordinates": [ 36.2658566, 37.083593 ] } },
{ "type": "Feature", "properties": { "name": "Toprakkale Eczanesi", "name:en": null, "amenity": "pharmacy", "building": null, "healthcare": "pharmacy", "healthcare:speciality": null, "operator:type": null, "capacity:persons": null, "addr:full": null, "addr:city": null, "source": null, "name:tr": null, "osm_id": 7920959084, "osm_type": "nodes" }, "geometry": { "type": "Point", "coordinates": [ 36.2623945, 37.076308 ] } },
{ "type": "Feature", "properties": { "name": "Ertan Eczanesi", "name:en": null, "amenity": "pharmacy", "building": null, "healthcare": "pharmacy", "healthcare:speciality": null, "operator:type": null, "capacity:persons": null, "addr:full": null, "addr:city": null, "source": null, "name:tr": null, "osm_id": 10157618820, "osm_type": "nodes" }, "geometry": { "type": "Point", "coordinates": [ 36.2461048, 37.0763888 ] } },
{ "type": "Feature", "properties": { "name": "Sağlık Ocağı", "name:en": null, "amenity": "clinic", "building": null, "healthcare": "clinic", "healthcare:speciality": null, "operator:type": null, "capacity:persons": null, "addr:full": null, "addr:city": null, "source": "SafeGraph", "name:tr": null, "osm_id": 10732740203, "osm_type": "nodes" }, "geometry": { "type": "Point", "coordinates": [ 37.927964, 38.2517605 ] } },
{ "type": "Feature", "properties": { "name": "Büyük Dikili Aile Saglık Merkezi", "name:en": null, "amenity": "clinic", "building": null, "healthcare": "clinic", "healthcare:speciality": null, "operator:type": null, "capacity:persons": null, "addr:full": null, "addr:city": null, "source": "SafeGraph", "name:tr": null, "osm_id": 10732611871, "osm_type": "nodes" }, "geometry": { "type": "Point", "coordinates": [ 35.1654664, 37.0072121 ] } },
{ "type": "Feature", "properties": { "name": "Gazikoy Aile Saglık Merkezi", "name:en": null, "amenity": "clinic", "building": null, "healthcare": "clinic", "healthcare:speciality": null, "operator:type": null, "capacity:persons": null, "addr:full": null, "addr:city": null, "source": "SafeGraph", "name:tr": null, "osm_id": 10732773105, "osm_type": "nodes" }, "geometry": { "type": "Point", "coordinates": [ 35.8537975, 37.3005156 ] } },
{ "type": "Feature", "properties": { "name": "Ahali Eczanesi", "name:en": null, "amenity": "pharmacy", "building": "demolished", "healthcare": "pharmacy", "healthcare:speciality": null, "operator:type": null, "capacity:persons": null, "addr:full": null, "addr:city": null, "source": "SafeGraph", "name:tr": null, "osm_id": 10148129619, "osm_type": "nodes" }, "geometry": { "type": "Point", "coordinates": [ 36.2119179, 36.3612451 ] } },
{ "type": "Feature", "properties": { "name": null, "name:en": null, "amenity": "dentist", "building": null, "healthcare": "dentist", "healthcare:speciality": null, "operator:type": null, "capacity:persons": null, "addr:full": null, "addr:city": "Hatay", "source": null, "name:tr": null, "osm_id": 11371254715, "osm_type": "nodes" }, "geometry": { "type": "Point", "coordinates": [ 36.2004863, 36.335067 ] } },
{ "type": "Feature", "properties": { "name": "Asena Eczanesi", "name:en": null, "amenity": "pharmacy", "building": null, "healthcare": "pharmacy", "healthcare:speciality": null, "operator:type": null, "capacity:persons": null, "addr:full": null, "addr:city": "Hatay", "source": null, "name:tr": null, "osm_id": 11371102943, "osm_type": "nodes" }, "geometry": { "type": "Point", "coordinates": [ 36.2003922, 36.337138 ] } },
{ "type": "Feature", "properties": { "name": "Dr.Yılmaz Akbaş", "name:en": null, "amenity": "clinic", "building": null, "healthcare": "clinic", "healthcare:speciality": "çocuk_nörolojisi", "operator:type": null, "capacity:persons": null, "addr:full": null, "addr:city": "Hatay", "source": null, "name:tr": null, "osm_id": 11371031671, "osm_type": "nodes" }, "geometry": { "type": "Point", "coordinates": [ 36.2097817, 36.3581416 ] } },
{ "type": "Feature", "properties": { "name": "Hızır. Eczanesi", "name:en": null, "amenity": "pharmacy", "building": null, "healthcare": "pharmacy", "healthcare:speciality": null, "operator:type": null, "capacity:persons": null, "addr:full": null, "addr:city": "Hatay", "source": null, "name:tr": null, "osm_id": 11371047279, "osm_type": "nodes" }, "geometry": { "type": "Point", "coordinates": [ 36.2074655, 36.3546594 ] } },
{ "type": "Feature", "properties": { "name": "Fizyoterapist Nilay Çiçek", "name:en": null, "amenity": null, "building": null, "healthcare": "physiotherapist", "healthcare:speciality": "physiotherapy", "operator:type": null, "capacity:persons": null, "addr:full": null, "addr:city": "Hatay", "source": null, "name:tr": null, "osm_id": 11371025048, "osm_type": "nodes" }, "geometry": { "type": "Point", "coordinates": [ 36.2024336, 36.348034 ] } },
{ "type": "Feature", "properties": { "name": "Samim Kavukoğlu Diş Hekimi", "name:en": null, "amenity": "dentist", "building": null, "healthcare": "dentist", "healthcare:speciality": null, "operator:type": null, "capacity:persons": null, "addr:full": null, "addr:city": "Hatay", "source": null, "name:tr": null, "osm_id": 11371019224, "osm_type": "nodes" }, "geometry": { "type": "Point", "coordinates": [ 36.2099941, 36.3584988 ] } },
{ "type": "Feature", "properties": { "name": null, "name:en": null, "amenity": "pharmacy", "building": null, "healthcare": "pharmacy", "healthcare:speciality": null, "operator:type": null, "capacity:persons": null, "addr:full": null, "addr:city": null, "source": null, "name:tr": null, "osm_id": 11370640710, "osm_type": "nodes" }, "geometry": { "type": "Point", "coordinates": [ 36.201281, 36.3408853 ] } },
{ "type": "Feature", "properties": { "name": "Sürmeli Eczanesi", "name:en": null, "amenity": "pharmacy", "building": null, "healthcare": "pharmacy", "healthcare:speciality": null, "operator:type": null, "capacity:persons": null, "addr:full": null, "addr:city": "Hatay", "source": null, "name:tr": null, "osm_id": 11370621574, "osm_type": "nodes" }, "geometry": { "type": "Point", "coordinates": [ 36.2004414, 36.3374125 ] } },
{ "type": "Feature", "properties": { "name": "Sena Eczanesi", "name:en": null, "amenity": "pharmacy", "building": null, "healthcare": "pharmacy", "healthcare:speciality": null, "operator:type": null, "capacity:persons": null, "addr:full": null, "addr:city": "Hatay", "source": null, "name:tr": null, "osm_id": 11370640142, "osm_type": "nodes" }, "geometry": { "type": "Point", "coordinates": [ 36.2004331, 36.3373193 ] } },
{ "type": "Feature", "properties": { "name": "Ezcane Ahali", "name:en": null, "amenity": "pharmacy", "building": null, "healthcare": "pharmacy", "healthcare:speciality": null, "operator:type": null, "capacity:persons": null, "addr:full": null, "addr:city": "Hatay", "source": null, "name:tr": null, "osm_id": 11370933086, "osm_type": "nodes" }, "geometry": { "type": "Point", "coordinates": [ 36.2123639, 36.3614465 ] } },
{ "type": "Feature", "properties": { "name": "Gürel Eczanesi", "name:en": null, "amenity": "pharmacy", "building": null, "healthcare": "pharmacy", "healthcare:speciality": null, "operator:type": null, "capacity:persons": null, "addr:full": null, "addr:city": "Hatay", "source": null, "name:tr": null, "osm_id": 10148129425, "osm_type": "nodes" }, "geometry": { "type": "Point", "coordinates": [ 36.2129948, 36.3620336 ] } },
{ "type": "Feature", "properties": { "name": "Toplum Saglıgı Merkezi", "name:en": null, "amenity": "clinic", "building": null, "healthcare": "clinic", "healthcare:speciality": null, "operator:type": null, "capacity:persons": null, "addr:full": null, "addr:city": null, "source": "SafeGraph", "name:tr": null, "osm_id": 10728226898, "osm_type": "nodes" }, "geometry": { "type": "Point", "coordinates": [ 38.2375025, 38.0328794 ] } },
{ "type": "Feature", "properties": { "name": "Kutay Ozel Saglık Ati Teknoloji", "name:en": null, "amenity": "clinic", "building": null, "healthcare": "clinic", "healthcare:speciality": null, "operator:type": null, "capacity:persons": null, "addr:full": null, "addr:city": null, "source": "SafeGraph", "name:tr": null, "osm_id": 10728257527, "osm_type": "nodes" }, "geometry": { "type": "Point", "coordinates": [ 37.3728567, 37.0622048 ] } },
{ "type": "Feature", "properties": { "name": "Saglık Ocagı", "name:en": null, "amenity": "clinic", "building": null, "healthcare": "clinic", "healthcare:speciality": null, "operator:type": null, "capacity:persons": null, "addr:full": null, "addr:city": null, "source": "SafeGraph", "name:tr": null, "osm_id": 10725790524, "osm_type": "nodes" }, "geometry": { "type": "Point", "coordinates": [ 36.128646, 36.1737683 ] } },
{ "type": "Feature", "properties": { "name": "Samandag Saglık Ocagı", "name:en": null, "amenity": "clinic", "building": null, "healthcare": "clinic", "healthcare:speciality": null, "operator:type": null, "capacity:persons": null, "addr:full": null, "addr:city": null, "source": "SafeGraph", "name:tr": null, "osm_id": 10725796843, "osm_type": "nodes" }, "geometry": { "type": "Point", "coordinates": [ 35.9820257, 36.0860584 ] } },
{ "type": "Feature", "properties": { "name": "Samandag Toplum Saglıgı Merkezi", "name:en": null, "amenity": "clinic", "building": null, "healthcare": "clinic", "healthcare:speciality": null, "operator:type": null, "capacity:persons": null, "addr:full": null, "addr:city": null, "source": "SafeGraph", "name:tr": null, "osm_id": 10725801245, "osm_type": "nodes" }, "geometry": { "type": "Point", "coordinates": [ 35.9867518, 36.0813199 ] } },
{ "type": "Feature", "properties": { "name": "Bilge Eczanesi", "name:en": null, "amenity": "pharmacy", "building": null, "healthcare": "pharmacy", "healthcare:speciality": null, "operator:type": null, "capacity:persons": null, "addr:full": null, "addr:city": null, "source": null, "name:tr": null, "osm_id": 10162493839, "osm_type": "nodes" }, "geometry": { "type": "Point", "coordinates": [ 36.8633563, 37.597822 ] } },
{ "type": "Feature", "properties": { "name": "Kahramanmaras Sutcu Imam Universitesi Arastırma Uygulama", "name:en": null, "amenity": "clinic", "building": null, "healthcare": "clinic", "healthcare:speciality": null, "operator:type": null, "capacity:persons": null, "addr:full": null, "addr:city": null, "source": "SafeGraph", "name:tr": null, "osm_id": 10717559027, "osm_type": "nodes" }, "geometry": { "type": "Point", "coordinates": [ 36.9244292, 37.5925353 ] } },
{ "type": "Feature", "properties": { "name": "Belediye Evleri Saglık Ocagı", "name:en": null, "amenity": "clinic", "building": null, "healthcare": "clinic", "healthcare:speciality": null, "operator:type": null, "capacity:persons": null, "addr:full": null, "addr:city": null, "source": "SafeGraph", "name:tr": null, "osm_id": 10717559877, "osm_type": "nodes" }, "geometry": { "type": "Point", "coordinates": [ 35.2595129, 37.0422879 ] } },
{ "type": "Feature", "properties": { "name": "Makbule Yusuf Televi Aile Saglıgı Merkezi", "name:en": null, "amenity": "clinic", "building": null, "healthcare": "clinic", "healthcare:speciality": null, "operator:type": null, "capacity:persons": null, "addr:full": null, "addr:city": null, "source": "SafeGraph", "name:tr": null, "osm_id": 10715798598, "osm_type": "nodes" }, "geometry": { "type": "Point", "coordinates": [ 35.3238988, 36.9796942 ] } },
{ "type": "Feature", "properties": { "name": "Ramiz Eczanesi", "name:en": null, "amenity": "pharmacy", "building": null, "healthcare": "pharmacy", "healthcare:speciality": null, "operator:type": null, "capacity:persons": null, "addr:full": null, "addr:city": null, "source": null, "name:tr": null, "osm_id": 10136028221, "osm_type": "nodes" }, "geometry": { "type": "Point", "coordinates": [ 38.7773819, 37.1617877 ] } },
{ "type": "Feature", "properties": { "name": "Gokce Aile Saglıgı Merkezi", "name:en": null, "amenity": "clinic", "building": null, "healthcare": "clinic", "healthcare:speciality": null, "operator:type": null, "capacity:persons": null, "addr:full": null, "addr:city": null, "source": "SafeGraph", "name:tr": null, "osm_id": 10715825999, "osm_type": "nodes" }, "geometry": { "type": "Point", "coordinates": [ 38.9992574, 38.2822462 ] } },
{ "type": "Feature", "properties": { "name": "Antas", "name:en": null, "amenity": "clinic", "building": null, "healthcare": "clinic", "healthcare:speciality": null, "operator:type": null, "capacity:persons": null, "addr:full": null, "addr:city": null, "source": "SafeGraph", "name:tr": null, "osm_id": 10713231828, "osm_type": "nodes" }, "geometry": { "type": "Point", "coordinates": [ 36.158459, 36.2029352 ] } },
{ "type": "Feature", "properties": { "name": "Saglık Ocagı", "name:en": null, "amenity": "clinic", "building": null, "healthcare": "clinic", "healthcare:speciality": null, "operator:type": null, "capacity:persons": null, "addr:full": null, "addr:city": null, "source": "SafeGraph", "name:tr": null, "osm_id": 10713180501, "osm_type": "nodes" }, "geometry": { "type": "Point", "coordinates": [ 39.7684023, 37.2277421 ] } },
{ "type": "Feature", "properties": { "name": "Saglık Ocagı", "name:en": null, "amenity": "clinic", "building": null, "healthcare": "clinic", "healthcare:speciality": null, "operator:type": null, "capacity:persons": null, "addr:full": null, "addr:city": null, "source": "SafeGraph", "name:tr": null, "osm_id": 10713194335, "osm_type": "nodes" }, "geometry": { "type": "Point", "coordinates": [ 38.75788, 38.3949029 ] } },
{ "type": "Feature", "properties": { "name": "Saglık Ocagı", "name:en": null, "amenity": "clinic", "building": null, "healthcare": "clinic", "healthcare:speciality": null, "operator:type": null, "capacity:persons": null, "addr:full": null, "addr:city": null, "source": "SafeGraph", "name:tr": null, "osm_id": 10711565402, "osm_type": "nodes" }, "geometry": { "type": "Point", "coordinates": [ 40.0461906, 36.8472232 ] } },
{ "type": "Feature", "properties": { "name": "Kahta 3 Nolu Aile Saglıgı Merkezi", "name:en": null, "amenity": "clinic", "building": null, "healthcare": "clinic", "healthcare:speciality": null, "operator:type": null, "capacity:persons": null, "addr:full": null, "addr:city": null, "source": "SafeGraph", "name:tr": null, "osm_id": 10711588473, "osm_type": "nodes" }, "geometry": { "type": "Point", "coordinates": [ 38.7399629, 37.8034158 ] } },
{ "type": "Feature", "properties": { "name": "Sinem Eczanesi", "name:en": null, "amenity": "pharmacy", "building": null, "healthcare": null, "healthcare:speciality": null, "operator:type": null, "capacity:persons": null, "addr:full": null, "addr:city": null, "source": null, "name:tr": null, "osm_id": 10112960518, "osm_type": "nodes" }, "geometry": { "type": "Point", "coordinates": [ 38.4276821, 37.8580486 ] } },
{ "type": "Feature", "properties": { "name": "Kozan Verem Savas Dispanseri", "name:en": null, "amenity": "clinic", "building": null, "healthcare": "clinic", "healthcare:speciality": null, "operator:type": null, "capacity:persons": null, "addr:full": null, "addr:city": null, "source": "SafeGraph", "name:tr": null, "osm_id": 10709354856, "osm_type": "nodes" }, "geometry": { "type": "Point", "coordinates": [ 35.826214, 37.4671951 ] } },
{ "type": "Feature", "properties": { "name": "Bulut Eczanesi", "name:en": null, "amenity": "pharmacy", "building": null, "healthcare": "pharmacy", "healthcare:speciality": null, "operator:type": null, "capacity:persons": null, "addr:full": null, "addr:city": "Şanlıurfa", "source": null, "name:tr": null, "osm_id": 7526495703, "osm_type": "nodes" }, "geometry": { "type": "Point", "coordinates": [ 39.7694098, 37.2103814 ] } },
{ "type": "Feature", "properties": { "name": "Pınar Eczanesi", "name:en": null, "amenity": "pharmacy", "building": null, "healthcare": "pharmacy", "healthcare:speciality": null, "operator:type": null, "capacity:persons": null, "addr:full": null, "addr:city": null, "source": "SafeGraph", "name:tr": null, "osm_id": 10694790960, "osm_type": "nodes" }, "geometry": { "type": "Point", "coordinates": [ 37.3623823, 37.0530156 ] } },
{ "type": "Feature", "properties": { "name": "Fatih Eczanesi", "name:en": null, "amenity": "pharmacy", "building": null, "healthcare": "pharmacy", "healthcare:speciality": null, "operator:type": null, "capacity:persons": null, "addr:full": null, "addr:city": null, "source": null, "name:tr": null, "osm_id": 10084127920, "osm_type": "nodes" }, "geometry": { "type": "Point", "coordinates": [ 40.0472024, 36.8614587 ] } },
{ "type": "Feature", "properties": { "name": "Tunç Eczanesi", "name:en": null, "amenity": "pharmacy", "building": null, "healthcare": "pharmacy", "healthcare:speciality": null, "operator:type": null, "capacity:persons": null, "addr:full": null, "addr:city": null, "source": null, "name:tr": null, "osm_id": 10084127921, "osm_type": "nodes" }, "geometry": { "type": "Point", "coordinates": [ 40.0413925, 36.8724281 ] } },
{ "type": "Feature", "properties": { "name": "Bayramoğlu Eczanesi", "name:en": null, "amenity": "pharmacy", "building": null, "healthcare": "pharmacy", "healthcare:speciality": null, "operator:type": null, "capacity:persons": null, "addr:full": null, "addr:city": null, "source": null, "name:tr": null, "osm_id": 10119467922, "osm_type": "nodes" }, "geometry": { "type": "Point", "coordinates": [ 39.0254755, 36.8683963 ] } },
{ "type": "Feature", "properties": { "name": "Haktanır Eczanesi", "name:en": null, "amenity": "pharmacy", "building": null, "healthcare": "pharmacy", "healthcare:speciality": null, "operator:type": null, "capacity:persons": null, "addr:full": null, "addr:city": null, "source": null, "name:tr": null, "osm_id": 10119467924, "osm_type": "nodes" }, "geometry": { "type": "Point", "coordinates": [ 39.0232162, 36.8686106 ] } },
{ "type": "Feature", "properties": { "name": "Gökçen Eczanesi", "name:en": null, "amenity": "pharmacy", "building": null, "healthcare": "pharmacy", "healthcare:speciality": null, "operator:type": null, "capacity:persons": null, "addr:full": null, "addr:city": null, "source": null, "name:tr": null, "osm_id": 10119467925, "osm_type": "nodes" }, "geometry": { "type": "Point", "coordinates": [ 39.0232793, 36.8687194 ] } },
{ "type": "Feature", "properties": { "name": "Güldeste Eczanesi", "name:en": null, "amenity": "pharmacy", "building": null, "healthcare": "pharmacy", "healthcare:speciality": null, "operator:type": null, "capacity:persons": null, "addr:full": null, "addr:city": null, "source": null, "name:tr": null, "osm_id": 10119480517, "osm_type": "nodes" }, "geometry": { "type": "Point", "coordinates": [ 38.9492729, 36.7079886 ] } },
{ "type": "Feature", "properties": { "name": "Zeynep Eczanesi", "name:en": null, "amenity": "pharmacy", "building": null, "healthcare": "pharmacy", "healthcare:speciality": null, "operator:type": null, "capacity:persons": null, "addr:full": null, "addr:city": null, "source": null, "name:tr": null, "osm_id": 10119480520, "osm_type": "nodes" }, "geometry": { "type": "Point", "coordinates": [ 38.9426274, 36.7139431 ] } },
{ "type": "Feature", "properties": { "name": "Yıldırım Eczanesi", "name:en": null, "amenity": "pharmacy", "building": null, "healthcare": "pharmacy", "healthcare:speciality": null, "operator:type": null, "capacity:persons": null, "addr:full": null, "addr:city": null, "source": null, "name:tr": null, "osm_id": 10119480527, "osm_type": "nodes" }, "geometry": { "type": "Point", "coordinates": [ 39.022875, 36.8682771 ] } },
{ "type": "Feature", "properties": { "name": "Ceylanpınar Eczanesi", "name:en": null, "amenity": "pharmacy", "building": null, "healthcare": "pharmacy", "healthcare:speciality": null, "operator:type": null, "capacity:persons": null, "addr:full": null, "addr:city": null, "source": null, "name:tr": null, "osm_id": 10084128220, "osm_type": "nodes" }, "geometry": { "type": "Point", "coordinates": [ 40.0417467, 36.8708757 ] } },
{ "type": "Feature", "properties": { "name": "Yamaç Eczanesi", "name:en": null, "amenity": "pharmacy", "building": null, "healthcare": "pharmacy", "healthcare:speciality": null, "operator:type": null, "capacity:persons": null, "addr:full": null, "addr:city": null, "source": null, "name:tr": null, "osm_id": 10084128221, "osm_type": "nodes" }, "geometry": { "type": "Point", "coordinates": [ 40.0417245, 36.8709353 ] } },
{ "type": "Feature", "properties": { "name": "Derman Eczanesi", "name:en": null, "amenity": "pharmacy", "building": null, "healthcare": "pharmacy", "healthcare:speciality": null, "operator:type": null, "capacity:persons": null, "addr:full": null, "addr:city": null, "source": null, "name:tr": null, "osm_id": 10084128222, "osm_type": "nodes" }, "geometry": { "type": "Point", "coordinates": [ 40.0414227, 36.8723603 ] } },
{ "type": "Feature", "properties": { "name": "Deva Eczanesi", "name:en": null, "amenity": "pharmacy", "building": null, "healthcare": "pharmacy", "healthcare:speciality": null, "operator:type": null, "capacity:persons": null, "addr:full": null, "addr:city": null, "source": null, "name:tr": null, "osm_id": 10084128717, "osm_type": "nodes" }, "geometry": { "type": "Point", "coordinates": [ 40.0531912, 36.8487817 ] } },
{ "type": "Feature", "properties": { "name": "Reşitoğlu Eczanesi", "name:en": null, "amenity": "pharmacy", "building": null, "healthcare": "pharmacy", "healthcare:speciality": null, "operator:type": null, "capacity:persons": null, "addr:full": null, "addr:city": null, "source": null, "name:tr": null, "osm_id": 10084128719, "osm_type": "nodes" }, "geometry": { "type": "Point", "coordinates": [ 40.0472974, 36.8658981 ] } },
{ "type": "Feature", "properties": { "name": "Sofioğlu Eczanesi", "name:en": null, "amenity": "pharmacy", "building": null, "healthcare": "pharmacy", "healthcare:speciality": null, "operator:type": null, "capacity:persons": null, "addr:full": null, "addr:city": null, "source": null, "name:tr": null, "osm_id": 10084128722, "osm_type": "nodes" }, "geometry": { "type": "Point", "coordinates": [ 40.0414622, 36.8722927 ] } },
{ "type": "Feature", "properties": { "name": "Şifa Eczanesi", "name:en": null, "amenity": "pharmacy", "building": null, "healthcare": "pharmacy", "healthcare:speciality": null, "operator:type": null, "capacity:persons": null, "addr:full": null, "addr:city": null, "source": null, "name:tr": null, "osm_id": 10084131217, "osm_type": "nodes" }, "geometry": { "type": "Point", "coordinates": [ 40.0416602, 36.871057 ] } },
{ "type": "Feature", "properties": { "name": "Sincar Eczanesi", "name:en": null, "amenity": "pharmacy", "building": null, "healthcare": "pharmacy", "healthcare:speciality": null, "operator:type": null, "capacity:persons": null, "addr:full": null, "addr:city": null, "source": null, "name:tr": null, "osm_id": 10084131218, "osm_type": "nodes" }, "geometry": { "type": "Point", "coordinates": [ 40.0413701, 36.872485 ] } },
{ "type": "Feature", "properties": { "name": "Umut Eczanesi", "name:en": null, "amenity": "pharmacy", "building": null, "healthcare": "pharmacy", "healthcare:speciality": null, "operator:type": null, "capacity:persons": null, "addr:full": null, "addr:city": null, "source": null, "name:tr": null, "osm_id": 10084132417, "osm_type": "nodes" }, "geometry": { "type": "Point", "coordinates": [ 40.041348, 36.8725422 ] } },
{ "type": "Feature", "properties": { "name": "Çare Eczanesi", "name:en": null, "amenity": "pharmacy", "building": null, "healthcare": "pharmacy", "healthcare:speciality": null, "operator:type": null, "capacity:persons": null, "addr:full": null, "addr:city": null, "source": null, "name:tr": null, "osm_id": 10084132418, "osm_type": "nodes" }, "geometry": { "type": "Point", "coordinates": [ 40.041326, 36.8726008 ] } },
{ "type": "Feature", "properties": { "name": "Ecmel Eczanesi", "name:en": null, "amenity": "pharmacy", "building": null, "healthcare": "pharmacy", "healthcare:speciality": null, "operator:type": null, "capacity:persons": null, "addr:full": null, "addr:city": null, "source": null, "name:tr": null, "osm_id": 10119480617, "osm_type": "nodes" }, "geometry": { "type": "Point", "coordinates": [ 38.9496191, 36.7124564 ] } },
{ "type": "Feature", "properties": { "name": "Özakçakale Eczanesi", "name:en": null, "amenity": "pharmacy", "building": null, "healthcare": "pharmacy", "healthcare:speciality": null, "operator:type": null, "capacity:persons": null, "addr:full": null, "addr:city": "Şanlıurfa", "source": null, "name:tr": null, "osm_id": 10119480618, "osm_type": "nodes" }, "geometry": { "type": "Point", "coordinates": [ 38.9483077, 36.7126001 ] } },
{ "type": "Feature", "properties": { "name": "Şifanur Eczanesi", "name:en": null, "amenity": "pharmacy", "building": null, "healthcare": "pharmacy", "healthcare:speciality": null, "operator:type": null, "capacity:persons": null, "addr:full": null, "addr:city": null, "source": null, "name:tr": null, "osm_id": 10119480619, "osm_type": "nodes" }, "geometry": { "type": "Point", "coordinates": [ 38.9481622, 36.7143014 ] } },
{ "type": "Feature", "properties": { "name": "Akay Eczanesi", "name:en": null, "amenity": "pharmacy", "building": null, "healthcare": "pharmacy", "healthcare:speciality": null, "operator:type": null, "capacity:persons": null, "addr:full": null, "addr:city": null, "source": null, "name:tr": null, "osm_id": 10119480620, "osm_type": "nodes" }, "geometry": { "type": "Point", "coordinates": [ 38.9430956, 36.7138617 ] } },
{ "type": "Feature", "properties": { "name": "Esen Eczanesi", "name:en": null, "amenity": "pharmacy", "building": null, "healthcare": "pharmacy", "healthcare:speciality": null, "operator:type": null, "capacity:persons": null, "addr:full": null, "addr:city": null, "source": null, "name:tr": null, "osm_id": 10119480628, "osm_type": "nodes" }, "geometry": { "type": "Point", "coordinates": [ 39.0253781, 36.8682823 ] } },
{ "type": "Feature", "properties": { "name": "Şifa Eczanesi", "name:en": null, "amenity": "pharmacy", "building": null, "healthcare": "pharmacy", "healthcare:speciality": null, "operator:type": null, "capacity:persons": null, "addr:full": null, "addr:city": null, "source": null, "name:tr": null, "osm_id": 10119481121, "osm_type": "nodes" }, "geometry": { "type": "Point", "coordinates": [ 39.023079, 36.8685053 ] } },
{ "type": "Feature", "properties": { "name": "Bülek Eczanesi", "name:en": null, "amenity": "pharmacy", "building": null, "healthcare": "pharmacy", "healthcare:speciality": null, "operator:type": null, "capacity:persons": null, "addr:full": null, "addr:city": null, "source": null, "name:tr": null, "osm_id": 10119481122, "osm_type": "nodes" }, "geometry": { "type": "Point", "coordinates": [ 39.0235773, 36.8692635 ] } },
{ "type": "Feature", "properties": { "name": "Ebrar Eczanesi", "name:en": null, "amenity": "pharmacy", "building": null, "healthcare": "pharmacy", "healthcare:speciality": null, "operator:type": null, "capacity:persons": null, "addr:full": null, "addr:city": null, "source": null, "name:tr": null, "osm_id": 10119481518, "osm_type": "nodes" }, "geometry": { "type": "Point", "coordinates": [ 39.0233613, 36.868839 ] } },
{ "type": "Feature", "properties": { "name": "Kemal Eczanesi", "name:en": null, "amenity": "pharmacy", "building": null, "healthcare": "pharmacy", "healthcare:speciality": null, "operator:type": null, "capacity:persons": null, "addr:full": null, "addr:city": null, "source": "SafeGraph", "name:tr": null, "osm_id": 10694837656, "osm_type": "nodes" }, "geometry": { "type": "Point", "coordinates": [ 37.9527597, 37.2259511 ] } },
{ "type": "Feature", "properties": { "name": "Asuman Eczanesi", "name:en": null, "amenity": "pharmacy", "building": null, "healthcare": "pharmacy", "healthcare:speciality": null, "operator:type": null, "capacity:persons": null, "addr:full": null, "addr:city": null, "source": "SafeGraph", "name:tr": null, "osm_id": 10694856871, "osm_type": "nodes" }, "geometry": { "type": "Point", "coordinates": [ 35.3228504, 36.9688194 ] } },
{ "type": "Feature", "properties": { "name": "Bizim Eczanesi", "name:en": null, "amenity": "pharmacy", "building": null, "healthcare": "pharmacy", "healthcare:speciality": null, "operator:type": null, "capacity:persons": null, "addr:full": null, "addr:city": null, "source": "SafeGraph", "name:tr": null, "osm_id": 10152376418, "osm_type": "nodes" }, "geometry": { "type": "Point", "coordinates": [ 36.1885098, 36.5751367 ] } },
{ "type": "Feature", "properties": { "name": "Yeşilyurt Eczanesi", "name:en": null, "amenity": "pharmacy", "building": null, "healthcare": "pharmacy", "healthcare:speciality": null, "operator:type": null, "capacity:persons": null, "addr:full": null, "addr:city": null, "source": "SafeGraph", "name:tr": null, "osm_id": 10174258720, "osm_type": "nodes" }, "geometry": { "type": "Point", "coordinates": [ 35.3059189, 37.0235154 ] } },
{ "type": "Feature", "properties": { "name": "Duztepe Eczanesi", "name:en": null, "amenity": "pharmacy", "building": null, "healthcare": "pharmacy", "healthcare:speciality": null, "operator:type": null, "capacity:persons": null, "addr:full": null, "addr:city": null, "source": "SafeGraph", "name:tr": null, "osm_id": 10694712132, "osm_type": "nodes" }, "geometry": { "type": "Point", "coordinates": [ 37.3817982, 37.0477383 ] } },
{ "type": "Feature", "properties": { "name": "Ege Eczanesi", "name:en": null, "amenity": "pharmacy", "building": null, "healthcare": "pharmacy", "healthcare:speciality": null, "operator:type": null, "capacity:persons": null, "addr:full": null, "addr:city": null, "source": "SafeGraph", "name:tr": null, "osm_id": 10694728421, "osm_type": "nodes" }, "geometry": { "type": "Point", "coordinates": [ 37.3426889, 37.0655174 ] } },
{ "type": "Feature", "properties": { "name": "Ozkan Eczanesi", "name:en": null, "amenity": "pharmacy", "building": null, "healthcare": "pharmacy", "healthcare:speciality": null, "operator:type": null, "capacity:persons": null, "addr:full": null, "addr:city": null, "source": "SafeGraph", "name:tr": null, "osm_id": 10694739596, "osm_type": "nodes" }, "geometry": { "type": "Point", "coordinates": [ 36.4553981, 37.242242 ] } },
{ "type": "Feature", "properties": { "name": "Yeni Eczanesi", "name:en": null, "amenity": "pharmacy", "building": null, "healthcare": "pharmacy", "healthcare:speciality": null, "operator:type": null, "capacity:persons": null, "addr:full": null, "addr:city": null, "source": "SafeGraph", "name:tr": null, "osm_id": 10694739603, "osm_type": "nodes" }, "geometry": { "type": "Point", "coordinates": [ 37.1913855, 38.1997622 ] } },
{ "type": "Feature", "properties": { "name": "Deva Eczanesi", "name:en": null, "amenity": "pharmacy", "building": null, "healthcare": "pharmacy", "healthcare:speciality": null, "operator:type": null, "capacity:persons": null, "addr:full": null, "addr:city": null, "source": "SafeGraph", "name:tr": null, "osm_id": 10074281019, "osm_type": "nodes" }, "geometry": { "type": "Point", "coordinates": [ 38.7885363, 37.1657282 ] } },
{ "type": "Feature", "properties": { "name": "Mercan Eczanesi", "name:en": null, "amenity": "pharmacy", "building": null, "healthcare": "pharmacy", "healthcare:speciality": null, "operator:type": null, "capacity:persons": null, "addr:full": null, "addr:city": null, "source": "SafeGraph", "name:tr": null, "osm_id": 10694598102, "osm_type": "nodes" }, "geometry": { "type": "Point", "coordinates": [ 37.1915826, 38.1999435 ] } },
{ "type": "Feature", "properties": { "name": "Sifa Eczanesi", "name:en": null, "amenity": "pharmacy", "building": null, "healthcare": "pharmacy", "healthcare:speciality": null, "operator:type": null, "capacity:persons": null, "addr:full": null, "addr:city": null, "source": "SafeGraph", "name:tr": null, "osm_id": 10694771571, "osm_type": "nodes" }, "geometry": { "type": "Point", "coordinates": [ 37.3731534, 37.0721177 ] } },
{ "type": "Feature", "properties": { "name": "Cukurova Eczanesi", "name:en": null, "amenity": "pharmacy", "building": null, "healthcare": "pharmacy", "healthcare:speciality": null, "operator:type": null, "capacity:persons": null, "addr:full": null, "addr:city": null, "source": "SafeGraph", "name:tr": null, "osm_id": 10694771630, "osm_type": "nodes" }, "geometry": { "type": "Point", "coordinates": [ 35.2987035, 36.9810093 ] } },
{ "type": "Feature", "properties": { "name": "Tascı Eczanesi", "name:en": null, "amenity": "pharmacy", "building": null, "healthcare": "pharmacy", "healthcare:speciality": null, "operator:type": null, "capacity:persons": null, "addr:full": null, "addr:city": null, "source": "SafeGraph", "name:tr": null, "osm_id": 10694782640, "osm_type": "nodes" }, "geometry": { "type": "Point", "coordinates": [ 38.8360584, 37.162483 ] } },
{ "type": "Feature", "properties": { "name": "Faruk Kayalalp Eczanesi", "name:en": null, "amenity": "pharmacy", "building": null, "healthcare": "pharmacy", "healthcare:speciality": null, "operator:type": null, "capacity:persons": null, "addr:full": null, "addr:city": null, "source": "SafeGraph", "name:tr": null, "osm_id": 10694783068, "osm_type": "nodes" }, "geometry": { "type": "Point", "coordinates": [ 37.388443, 37.0580024 ] } },
{ "type": "Feature", "properties": { "name": "Akgul Eczanesi", "name:en": null, "amenity": "pharmacy", "building": null, "healthcare": "pharmacy", "healthcare:speciality": null, "operator:type": null, "capacity:persons": null, "addr:full": null, "addr:city": null, "source": "SafeGraph", "name:tr": null, "osm_id": 10694793516, "osm_type": "nodes" }, "geometry": { "type": "Point", "coordinates": [ 36.9112878, 37.583143 ] } },
{ "type": "Feature", "properties": { "name": "Yakıncı Eczanesi", "name:en": null, "amenity": "pharmacy", "building": null, "healthcare": "pharmacy", "healthcare:speciality": null, "operator:type": null, "capacity:persons": null, "addr:full": null, "addr:city": null, "source": "SafeGraph", "name:tr": null, "osm_id": 10693108425, "osm_type": "nodes" }, "geometry": { "type": "Point", "coordinates": [ 38.3291665, 38.3466915 ] } },
{ "type": "Feature", "properties": { "name": "Kamacı Eczanesi", "name:en": null, "amenity": "pharmacy", "building": null, "healthcare": "pharmacy", "healthcare:speciality": null, "operator:type": null, "capacity:persons": null, "addr:full": null, "addr:city": null, "source": "SafeGraph", "name:tr": null, "osm_id": 10693213992, "osm_type": "nodes" }, "geometry": { "type": "Point", "coordinates": [ 37.4273488, 37.1294714 ] } },
{ "type": "Feature", "properties": { "name": "Takadas Eczanesi", "name:en": null, "amenity": "pharmacy", "building": null, "healthcare": "pharmacy", "healthcare:speciality": null, "operator:type": null, "capacity:persons": null, "addr:full": null, "addr:city": null, "source": "SafeGraph", "name:tr": null, "osm_id": 10694541965, "osm_type": "nodes" }, "geometry": { "type": "Point", "coordinates": [ 35.3228138, 37.0079204 ] } },
{ "type": "Feature", "properties": { "name": "Burcu Eczanesi", "name:en": null, "amenity": "pharmacy", "building": null, "healthcare": "pharmacy", "healthcare:speciality": null, "operator:type": null, "capacity:persons": null, "addr:full": null, "addr:city": null, "source": "SafeGraph", "name:tr": null, "osm_id": 10694542244, "osm_type": "nodes" }, "geometry": { "type": "Point", "coordinates": [ 38.4258024, 36.9803044 ] } },
{ "type": "Feature", "properties": { "name": "Nihan Eczanesi", "name:en": null, "amenity": "pharmacy", "building": null, "healthcare": "pharmacy", "healthcare:speciality": null, "operator:type": null, "capacity:persons": null, "addr:full": null, "addr:city": null, "source": "SafeGraph", "name:tr": null, "osm_id": 10694743750, "osm_type": "nodes" }, "geometry": { "type": "Point", "coordinates": [ 35.2996288, 36.9833855 ] } },
{ "type": "Feature", "properties": { "name": "Karatas Eczanesi", "name:en": null, "amenity": "pharmacy", "building": null, "healthcare": "pharmacy", "healthcare:speciality": null, "operator:type": null, "capacity:persons": null, "addr:full": null, "addr:city": null, "source": "SafeGraph", "name:tr": null, "osm_id": 10694748287, "osm_type": "nodes" }, "geometry": { "type": "Point", "coordinates": [ 38.789046, 37.1593781 ] } },
{ "type": "Feature", "properties": { "name": "Bahadır Eczanesi", "name:en": null, "amenity": "pharmacy", "building": null, "healthcare": "pharmacy", "healthcare:speciality": null, "operator:type": null, "capacity:persons": null, "addr:full": null, "addr:city": null, "source": "SafeGraph", "name:tr": null, "osm_id": 10694758098, "osm_type": "nodes" }, "geometry": { "type": "Point", "coordinates": [ 36.5678979, 36.2669858 ] } },
{ "type": "Feature", "properties": { "name": "Sacaklı Eczanesi", "name:en": null, "amenity": "pharmacy", "building": null, "healthcare": "pharmacy", "healthcare:speciality": null, "operator:type": null, "capacity:persons": null, "addr:full": null, "addr:city": null, "source": "SafeGraph", "name:tr": null, "osm_id": 10694768910, "osm_type": "nodes" }, "geometry": { "type": "Point", "coordinates": [ 37.3829918, 37.0515167 ] } },
{ "type": "Feature", "properties": { "name": "7 Mart Eczanesi", "name:en": null, "amenity": "pharmacy", "building": null, "healthcare": "pharmacy", "healthcare:speciality": null, "operator:type": null, "capacity:persons": null, "addr:full": null, "addr:city": null, "source": "SafeGraph", "name:tr": null, "osm_id": 10694775436, "osm_type": "nodes" }, "geometry": { "type": "Point", "coordinates": [ 36.099996, 37.3698587 ] } },
{ "type": "Feature", "properties": { "name": "Ebru Eczanesi", "name:en": null, "amenity": "pharmacy", "building": null, "healthcare": "pharmacy", "healthcare:speciality": null, "operator:type": null, "capacity:persons": null, "addr:full": null, "addr:city": null, "source": "SafeGraph", "name:tr": null, "osm_id": 10694777520, "osm_type": "nodes" }, "geometry": { "type": "Point", "coordinates": [ 37.3780082, 37.0857102 ] } },
{ "type": "Feature", "properties": { "name": "Pamuk Eczanesi", "name:en": null, "amenity": "pharmacy", "building": null, "healthcare": "pharmacy", "healthcare:speciality": null, "operator:type": null, "capacity:persons": null, "addr:full": null, "addr:city": null, "source": "SafeGraph", "name:tr": null, "osm_id": 10694779117, "osm_type": "nodes" }, "geometry": { "type": "Point", "coordinates": [ 36.1580122, 36.2035022 ] } },
{ "type": "Feature", "properties": { "name": "Ugur Eczanesi", "name:en": null, "amenity": "pharmacy", "building": null, "healthcare": "pharmacy", "healthcare:speciality": null, "operator:type": null, "capacity:persons": null, "addr:full": null, "addr:city": null, "source": "SafeGraph", "name:tr": null, "osm_id": 10694788310, "osm_type": "nodes" }, "geometry": { "type": "Point", "coordinates": [ 38.8074231, 37.1848403 ] } },
{ "type": "Feature", "properties": { "name": "Cem Eczanesi", "name:en": null, "amenity": "pharmacy", "building": null, "healthcare": "pharmacy", "healthcare:speciality": null, "operator:type": null, "capacity:persons": null, "addr:full": null, "addr:city": null, "source": "SafeGraph", "name:tr": null, "osm_id": 10694799818, "osm_type": "nodes" }, "geometry": { "type": "Point", "coordinates": [ 36.1659707, 36.585424 ] } },
{ "type": "Feature", "properties": { "name": "Derman Eczanesi", "name:en": null, "amenity": "pharmacy", "building": null, "healthcare": "pharmacy", "healthcare:speciality": null, "operator:type": null, "capacity:persons": null, "addr:full": null, "addr:city": null, "source": "SafeGraph", "name:tr": null, "osm_id": 10694799819, "osm_type": "nodes" }, "geometry": { "type": "Point", "coordinates": [ 35.3139119, 37.0196222 ] } },
{ "type": "Feature", "properties": { "name": "Unlu Eczanesi", "name:en": null, "amenity": "pharmacy", "building": null, "healthcare": "pharmacy", "healthcare:speciality": null, "operator:type": null, "capacity:persons": null, "addr:full": null, "addr:city": null, "source": "SafeGraph", "name:tr": null, "osm_id": 10694815684, "osm_type": "nodes" }, "geometry": { "type": "Point", "coordinates": [ 36.1382762, 36.1913923 ] } },
{ "type": "Feature", "properties": { "name": "Hacettepe Eczanesi", "name:en": null, "amenity": "pharmacy", "building": null, "healthcare": "pharmacy", "healthcare:speciality": null, "operator:type": null, "capacity:persons": null, "addr:full": null, "addr:city": null, "source": "SafeGraph", "name:tr": null, "osm_id": 10694818615, "osm_type": "nodes" }, "geometry": { "type": "Point", "coordinates": [ 35.3178552, 37.0145137 ] } },
{ "type": "Feature", "properties": { "name": "Gungor Eczanesi", "name:en": null, "amenity": "pharmacy", "building": null, "healthcare": "pharmacy", "healthcare:speciality": null, "operator:type": null, "capacity:persons": null, "addr:full": null, "addr:city": null, "source": "SafeGraph", "name:tr": null, "osm_id": 10694830652, "osm_type": "nodes" }, "geometry": { "type": "Point", "coordinates": [ 37.2012173, 38.2046619 ] } },
{ "type": "Feature", "properties": { "name": "Gunduz Eczanesi", "name:en": null, "amenity": "pharmacy", "building": null, "healthcare": "pharmacy", "healthcare:speciality": null, "operator:type": null, "capacity:persons": null, "addr:full": null, "addr:city": null, "source": "SafeGraph", "name:tr": null, "osm_id": 10694840149, "osm_type": "nodes" }, "geometry": { "type": "Point", "coordinates": [ 35.3078235, 37.0453038 ] } },
{ "type": "Feature", "properties": { "name": "Derya Can Eczanesi", "name:en": null, "amenity": "pharmacy", "building": null, "healthcare": "pharmacy", "healthcare:speciality": null, "operator:type": null, "capacity:persons": null, "addr:full": null, "addr:city": null, "source": "SafeGraph", "name:tr": null, "osm_id": 10694840328, "osm_type": "nodes" }, "geometry": { "type": "Point", "coordinates": [ 35.3069217, 37.0488636 ] } },
{ "type": "Feature", "properties": { "name": "Sifa Eczanesi", "name:en": null, "amenity": "pharmacy", "building": null, "healthcare": "pharmacy", "healthcare:speciality": null, "operator:type": null, "capacity:persons": null, "addr:full": null, "addr:city": null, "source": "SafeGraph", "name:tr": null, "osm_id": 3726108342, "osm_type": "nodes" }, "geometry": { "type": "Point", "coordinates": [ 35.3153685, 36.9948481 ] } },
{ "type": "Feature", "properties": { "name": "Sorguc Eczanesi", "name:en": null, "amenity": "pharmacy", "building": null, "healthcare": "pharmacy", "healthcare:speciality": null, "operator:type": null, "capacity:persons": null, "addr:full": null, "addr:city": null, "source": "SafeGraph", "name:tr": null, "osm_id": 10178099532, "osm_type": "nodes" }, "geometry": { "type": "Point", "coordinates": [ 35.2902729, 37.0269805 ] } },
{ "type": "Feature", "properties": { "name": "Dr Abdurrahman Neyal", "name:en": null, "amenity": "pharmacy", "building": null, "healthcare": "pharmacy", "healthcare:speciality": null, "operator:type": null, "capacity:persons": null, "addr:full": null, "addr:city": null, "source": "SafeGraph", "name:tr": null, "osm_id": 10694570495, "osm_type": "nodes" }, "geometry": { "type": "Point", "coordinates": [ 37.3793842, 37.068152 ] } },
{ "type": "Feature", "properties": { "name": "Ayas Eczanesi", "name:en": null, "amenity": "pharmacy", "building": null, "healthcare": "pharmacy", "healthcare:speciality": null, "operator:type": null, "capacity:persons": null, "addr:full": null, "addr:city": null, "source": "SafeGraph", "name:tr": null, "osm_id": 10694582144, "osm_type": "nodes" }, "geometry": { "type": "Point", "coordinates": [ 35.3429505, 37.0022592 ] } },
{ "type": "Feature", "properties": { "name": "Merve Eczanesi", "name:en": null, "amenity": "pharmacy", "building": null, "healthcare": "pharmacy", "healthcare:speciality": null, "operator:type": null, "capacity:persons": null, "addr:full": null, "addr:city": null, "source": "SafeGraph", "name:tr": null, "osm_id": 10694582229, "osm_type": "nodes" }, "geometry": { "type": "Point", "coordinates": [ 37.3567357, 37.0593649 ] } },
{ "type": "Feature", "properties": { "name": "Tugba Eczanesi", "name:en": null, "amenity": "pharmacy", "building": null, "healthcare": "pharmacy", "healthcare:speciality": null, "operator:type": null, "capacity:persons": null, "addr:full": null, "addr:city": null, "source": "SafeGraph", "name:tr": null, "osm_id": 10694582447, "osm_type": "nodes" }, "geometry": { "type": "Point", "coordinates": [ 36.2033147, 36.8308826 ] } },
{ "type": "Feature", "properties": { "name": "Eylul Eczanesi", "name:en": null, "amenity": "pharmacy", "building": null, "healthcare": "pharmacy", "healthcare:speciality": null, "operator:type": null, "capacity:persons": null, "addr:full": null, "addr:city": null, "source": "SafeGraph", "name:tr": null, "osm_id": 10694582516, "osm_type": "nodes" }, "geometry": { "type": "Point", "coordinates": [ 38.7391231, 37.1381639 ] } },
{ "type": "Feature", "properties": { "name": "Divan Eczanesi", "name:en": null, "amenity": "pharmacy", "building": null, "healthcare": "pharmacy", "healthcare:speciality": null, "operator:type": null, "capacity:persons": null, "addr:full": null, "addr:city": null, "source": "SafeGraph", "name:tr": null, "osm_id": 10694590625, "osm_type": "nodes" }, "geometry": { "type": "Point", "coordinates": [ 38.7906325, 37.1528068 ] } },
{ "type": "Feature", "properties": { "name": "Mustafa Rıfat Gulek Eczanesi", "name:en": null, "amenity": "pharmacy", "building": null, "healthcare": "pharmacy", "healthcare:speciality": null, "operator:type": null, "capacity:persons": null, "addr:full": null, "addr:city": null, "source": "SafeGraph", "name:tr": null, "osm_id": 10694591471, "osm_type": "nodes" }, "geometry": { "type": "Point", "coordinates": [ 35.3315283, 36.98628 ] } },
{ "type": "Feature", "properties": { "name": "Ramiz Eczanesi", "name:en": null, "amenity": "pharmacy", "building": null, "healthcare": "pharmacy", "healthcare:speciality": null, "operator:type": null, "capacity:persons": null, "addr:full": null, "addr:city": null, "source": "SafeGraph", "name:tr": null, "osm_id": 10694597617, "osm_type": "nodes" }, "geometry": { "type": "Point", "coordinates": [ 38.7701377, 37.1644655 ] } },
{ "type": "Feature", "properties": { "name": "Oruc Eczanesi", "name:en": null, "amenity": "pharmacy", "building": null, "healthcare": "pharmacy", "healthcare:speciality": null, "operator:type": null, "capacity:persons": null, "addr:full": null, "addr:city": null, "source": "SafeGraph", "name:tr": null, "osm_id": 10694602215, "osm_type": "nodes" }, "geometry": { "type": "Point", "coordinates": [ 37.3782697, 37.0812424 ] } },
{ "type": "Feature", "properties": { "name": "Akkapı Eczanesi", "name:en": null, "amenity": "pharmacy", "building": null, "healthcare": "pharmacy", "healthcare:speciality": null, "operator:type": null, "capacity:persons": null, "addr:full": null, "addr:city": null, "source": "SafeGraph", "name:tr": null, "osm_id": 10694602944, "osm_type": "nodes" }, "geometry": { "type": "Point", "coordinates": [ 35.3185295, 36.9344959 ] } },
{ "type": "Feature", "properties": { "name": "Dicle Eczanesi", "name:en": null, "amenity": "pharmacy", "building": null, "healthcare": "pharmacy", "healthcare:speciality": null, "operator:type": null, "capacity:persons": null, "addr:full": null, "addr:city": null, "source": "SafeGraph", "name:tr": null, "osm_id": 10694603614, "osm_type": "nodes" }, "geometry": { "type": "Point", "coordinates": [ 38.787037, 37.158506 ] } },
{ "type": "Feature", "properties": { "name": "Erol Dai Eczanesi", "name:en": null, "amenity": "pharmacy", "building": null, "healthcare": "pharmacy", "healthcare:speciality": null, "operator:type": null, "capacity:persons": null, "addr:full": null, "addr:city": null, "source": "SafeGraph", "name:tr": null, "osm_id": 10694607679, "osm_type": "nodes" }, "geometry": { "type": "Point", "coordinates": [ 37.3800864, 37.0607667 ] } },
{ "type": "Feature", "properties": { "name": "Furkan Eczanesi", "name:en": null, "amenity": "pharmacy", "building": null, "healthcare": "pharmacy", "healthcare:speciality": null, "operator:type": null, "capacity:persons": null, "addr:full": null, "addr:city": null, "source": "SafeGraph", "name:tr": null, "osm_id": 10694610203, "osm_type": "nodes" }, "geometry": { "type": "Point", "coordinates": [ 38.8167089, 37.1746947 ] } },
{ "type": "Feature", "properties": { "name": "Dundar Eczane Optik", "name:en": null, "amenity": "pharmacy", "building": null, "healthcare": "pharmacy", "healthcare:speciality": null, "operator:type": null, "capacity:persons": null, "addr:full": null, "addr:city": null, "source": "SafeGraph", "name:tr": null, "osm_id": 10694822891, "osm_type": "nodes" }, "geometry": { "type": "Point", "coordinates": [ 37.3799072, 37.0600488 ] } },
{ "type": "Feature", "properties": { "name": "Esentepe Eczanesi", "name:en": null, "amenity": "pharmacy", "building": null, "healthcare": "pharmacy", "healthcare:speciality": null, "operator:type": null, "capacity:persons": null, "addr:full": null, "addr:city": null, "source": "SafeGraph", "name:tr": null, "osm_id": 10694826543, "osm_type": "nodes" }, "geometry": { "type": "Point", "coordinates": [ 37.3760033, 37.0452925 ] } },
{ "type": "Feature", "properties": { "name": "Eczane Burcu", "name:en": null, "amenity": "pharmacy", "building": null, "healthcare": "pharmacy", "healthcare:speciality": null, "operator:type": null, "capacity:persons": null, "addr:full": null, "addr:city": null, "source": "SafeGraph", "name:tr": null, "osm_id": 10694689781, "osm_type": "nodes" }, "geometry": { "type": "Point", "coordinates": [ 38.3094496, 38.3552019 ] } },
{ "type": "Feature", "properties": { "name": "Kerem Eczanesi", "name:en": null, "amenity": "pharmacy", "building": null, "healthcare": "pharmacy", "healthcare:speciality": null, "operator:type": null, "capacity:persons": null, "addr:full": null, "addr:city": null, "source": "SafeGraph", "name:tr": "Kerem Eczanesi", "osm_id": 5002965333, "osm_type": "nodes" }, "geometry": { "type": "Point", "coordinates": [ 38.2776479, 37.7593247 ] } },
{ "type": "Feature", "properties": { "name": "Kayaönü Eczanesi", "name:en": null, "amenity": "pharmacy", "building": null, "healthcare": "pharmacy", "healthcare:speciality": null, "operator:type": null, "capacity:persons": null, "addr:full": null, "addr:city": null, "source": "SafeGraph", "name:tr": null, "osm_id": 5240481821, "osm_type": "nodes" }, "geometry": { "type": "Point", "coordinates": [ 37.3749773, 37.0784992 ] } },
{ "type": "Feature", "properties": { "name": "Guner Eczanesi", "name:en": null, "amenity": "pharmacy", "building": null, "healthcare": "pharmacy", "healthcare:speciality": null, "operator:type": null, "capacity:persons": null, "addr:full": null, "addr:city": null, "source": "SafeGraph", "name:tr": null, "osm_id": 10100007817, "osm_type": "nodes" }, "geometry": { "type": "Point", "coordinates": [ 37.3229347, 37.0254694 ] } },
{ "type": "Feature", "properties": { "name": "Deniz Yetkin Eczanesi", "name:en": null, "amenity": "pharmacy", "building": null, "healthcare": "pharmacy", "healthcare:speciality": null, "operator:type": null, "capacity:persons": null, "addr:full": null, "addr:city": null, "source": "SafeGraph", "name:tr": null, "osm_id": 10106246127, "osm_type": "nodes" }, "geometry": { "type": "Point", "coordinates": [ 37.3785711, 37.0598929 ] } },
{ "type": "Feature", "properties": { "name": "Ayıntap Eczanesi", "name:en": null, "amenity": "pharmacy", "building": null, "healthcare": "pharmacy", "healthcare:speciality": null, "operator:type": null, "capacity:persons": null, "addr:full": null, "addr:city": null, "source": "SafeGraph", "name:tr": null, "osm_id": 10106246618, "osm_type": "nodes" }, "geometry": { "type": "Point", "coordinates": [ 37.3786904, 37.0598962 ] } },
{ "type": "Feature", "properties": { "name": "Akdeniz Eczanesi", "name:en": null, "amenity": "pharmacy", "building": null, "healthcare": "pharmacy", "healthcare:speciality": null, "operator:type": null, "capacity:persons": null, "addr:full": null, "addr:city": null, "source": "SafeGraph", "name:tr": null, "osm_id": 10152328123, "osm_type": "nodes" }, "geometry": { "type": "Point", "coordinates": [ 36.1677727, 36.5783217 ] } },
{ "type": "Feature", "properties": { "name": "Parlak Eczanesi", "name:en": null, "amenity": "pharmacy", "building": null, "healthcare": "pharmacy", "healthcare:speciality": null, "operator:type": null, "capacity:persons": null, "addr:full": null, "addr:city": null, "source": "SafeGraph", "name:tr": null, "osm_id": 10174043221, "osm_type": "nodes" }, "geometry": { "type": "Point", "coordinates": [ 35.3076942, 37.0452697 ] } },
{ "type": "Feature", "properties": { "name": "Kahyalar Eczanesi", "name:en": null, "amenity": "pharmacy", "building": null, "healthcare": "pharmacy", "healthcare:speciality": null, "operator:type": null, "capacity:persons": null, "addr:full": null, "addr:city": null, "source": "SafeGraph", "name:tr": null, "osm_id": 10174043227, "osm_type": "nodes" }, "geometry": { "type": "Point", "coordinates": [ 35.3067266, 37.0358658 ] } },
{ "type": "Feature", "properties": { "name": "Mahfesıgmaz Eczanesi", "name:en": null, "amenity": "pharmacy", "building": null, "healthcare": "pharmacy", "healthcare:speciality": null, "operator:type": null, "capacity:persons": null, "addr:full": null, "addr:city": null, "source": "SafeGraph", "name:tr": null, "osm_id": 10174043819, "osm_type": "nodes" }, "geometry": { "type": "Point", "coordinates": [ 35.2896855, 37.0482136 ] } },
{ "type": "Feature", "properties": { "name": "Batu Eczanesi", "name:en": null, "amenity": "pharmacy", "building": null, "healthcare": "pharmacy", "healthcare:speciality": null, "operator:type": null, "capacity:persons": null, "addr:full": null, "addr:city": null, "source": "SafeGraph", "name:tr": null, "osm_id": 10174258917, "osm_type": "nodes" }, "geometry": { "type": "Point", "coordinates": [ 35.2948933, 37.0388736 ] } },
{ "type": "Feature", "properties": { "name": "Ayhan Eczanesi", "name:en": null, "amenity": "pharmacy", "building": null, "healthcare": "pharmacy", "healthcare:speciality": null, "operator:type": null, "capacity:persons": null, "addr:full": null, "addr:city": null, "source": "SafeGraph", "name:tr": null, "osm_id": 10178099531, "osm_type": "nodes" }, "geometry": { "type": "Point", "coordinates": [ 35.2940987, 37.0229894 ] } },
{ "type": "Feature", "properties": { "name": "Topaloglu Eczanesi", "name:en": null, "amenity": "pharmacy", "building": null, "healthcare": "pharmacy", "healthcare:speciality": null, "operator:type": null, "capacity:persons": null, "addr:full": null, "addr:city": null, "source": "SafeGraph", "name:tr": null, "osm_id": 10694507960, "osm_type": "nodes" }, "geometry": { "type": "Point", "coordinates": [ 35.324737, 36.9959742 ] } },
{ "type": "Feature", "properties": { "name": "Halk Eczanesi", "name:en": null, "amenity": "pharmacy", "building": null, "healthcare": "pharmacy", "healthcare:speciality": null, "operator:type": null, "capacity:persons": null, "addr:full": null, "addr:city": null, "source": "SafeGraph", "name:tr": null, "osm_id": 10694533500, "osm_type": "nodes" }, "geometry": { "type": "Point", "coordinates": [ 37.1079851, 36.7144681 ] } },
{ "type": "Feature", "properties": { "name": "Balıklıgol Eczanesi", "name:en": null, "amenity": "pharmacy", "building": null, "healthcare": "pharmacy", "healthcare:speciality": null, "operator:type": null, "capacity:persons": null, "addr:full": null, "addr:city": null, "source": "SafeGraph", "name:tr": null, "osm_id": 10694555428, "osm_type": "nodes" }, "geometry": { "type": "Point", "coordinates": [ 38.7756068, 37.156317 ] } },
{ "type": "Feature", "properties": { "name": "Olcer Eczanesi", "name:en": null, "amenity": "pharmacy", "building": null, "healthcare": "pharmacy", "healthcare:speciality": null, "operator:type": null, "capacity:persons": null, "addr:full": null, "addr:city": null, "source": "SafeGraph", "name:tr": null, "osm_id": 10694576392, "osm_type": "nodes" }, "geometry": { "type": "Point", "coordinates": [ 37.4402301, 37.0856738 ] } },